city,latitude,longitude,number of attacks
Washington,38.89037,-77.031959,13
San Juan,18.46617,-66.106654,27
Mesquite,32.767133,-96.599114,1
New York City,40.712784,-74.005941,43
Ottawa,45.42153,-75.697193,5
Ottawa,45.42153,-75.697193,5
San Diego,32.715695,-117.161719,12
Berkeley,37.869885,-122.270539,3
Northridge,34.238125,-118.530123,1
Cleveland,41.504365,-81.690459,1
Auburn,47.307307,-122.228441,1
Houston,29.76045,-95.369784,3
Toronto,43.6666667,-79.4166667,4
Mexico City,19.432608,-99.133207,52
Boston,42.279265,-71.149497,5
Paterson,40.916465,-74.171084,1
Brentwood,40.778737,-73.230184,1
Santa Ana,33.745573,-117.867834,40
Charlotte,35.2225,-80.837539,2
Baton Rouge,30.443335,-91.186994,2
Baton Rouge,30.443335,-91.186994,2
Ann Arbor,42.281875,-83.748479,4
Dover,39.158035,-75.524734,1
Washington,38.914153,-77.046046,13
New York City,40.78306,-73.971249,43
Sacramento,38.579065,-121.491014,6
Cincinnati,39.103175,-84.511981,4
Cincinnati,39.103175,-84.511981,4
Toledo,41.65381,-83.536259,21
Hacienda Guajoyo,13.482291,-88.712816,1
Pointe-a-Pitre,16.2411,-61.5331,6
Cerro Verde,13.36448506,-85.29337972,1
Jinotega,13.13070671,-85.9716835,28
Embalse Cerron Grande,13.938518,-88.901366,15
Gosier,16.20955,-61.487493,1
Concepcion de Oriente,13.7913889,-87.7166667,1
San Salvador,13.69288,-89.199161,529
Santa Elena,13.66667,-89.26667,10
Santa Tecla,13.6769444,-89.2797222,21
San Pedro,13.664223,-88.660622,12
Campana,13.9977778,-89.3772222,2
Santa Ana,11.978037,-86.37649345,40
Santa Ana,11.978037,-86.37649345,40
Wawa,13.87915,-83.45851,1
La Bodega,13.93412,-84.59281,1
Corre Viento,12.94672,-86.52002,1
San Jose,12.2166667,-84.2166667,31
Santa Maria,13.746389,-86.709722,7
San Juan de Limay,13.174408,-86.612595,3
Wiwili,13.62679,-85.8254,19
San Salvador,13.69288,-89.199161,529
San Salvador,13.69288,-89.199161,529
El Salitre,13.8222,-89.25389,1
Guatemala City,14.624422,-90.53288,247
Santa Ana,13.99417,-89.55972,40
La Mula,13.790327,-88.475585,1
Suchitoto,13.933732,-89.025836,24
Quilali,13.564251,-86.02984,21
San Salvador,13.69288,-89.199161,529
Guatajiagua,13.6667,-88.208264,4
Guatemala City,14.624422,-90.53288,247
San Rafael Cedros,13.7333333,-88.8833333,23
San Rafael Cedros,13.7333333,-88.8833333,23
San Rafael Cedros,13.7333333,-88.8833333,23
San Rafael Cedros,13.7333333,-88.8833333,23
San Rafael Cedros,13.7333333,-88.8833333,23
San Rafael Cedros,13.7333333,-88.8833333,23
San Vicente,13.64121,-88.785423,37
Cerro Tempisque,13.3833333,-87.9333333,1
Valle Nuevo,13.87556,-89.40333,1
Copalchan,13.85,-88.9666667,1
Sumal,15.519717,-91.188243,2
Esquipulas Palo Gordo,14.933333,-91.816667,1
Bicalama,15.511667,-91.219722,1
El Delirio,12.069883,-86.476841,3
Punta Gorda,11.32716209,-84.03855896,1
Unknown,13.7682,-88.129139,5189
Somotillo,13.041707,-86.905374,7
Zapote,13.548685,-85.781946,2
Wualpa,12.93954,-83.53461,1
San Salvador,13.69288,-89.199161,529
Apopa,13.79833,-89.17889,32
Telpaneca,13.47348688,-86.23244476,3
Telpaneca,13.47348688,-86.23244476,3
Santiago Atitlan,14.638379,-91.230164,2
Suchitoto,13.933732,-89.025836,24
Sumal,15.519717,-91.188243,2
Rama Cay Island area,11.32716209,-84.03855896,1
Santiago de Maria,13.4833333,-88.4666667,31
Kuikuinita,13.376402,-84.86509,1
El Coyolito,12.684095,-86.212746,2
San Salvador,13.69288,-89.199161,529
San Salvador,13.69288,-89.199161,529
San Salvador,13.69288,-89.199161,529
San Salvador,13.69288,-89.199161,529
San Salvador,13.69288,-89.199161,529
San Salvador,13.69288,-89.199161,529
San Salvador,13.69288,-89.199161,529
San Salvador,13.69288,-89.199161,529
San Salvador,13.69288,-89.199161,529
San Salvador,13.69288,-89.199161,529
San Salvador,13.69288,-89.199161,529
San Salvador,13.69288,-89.199161,529
San Salvador,13.69288,-89.199161,529
San Salvador,13.69288,-89.199161,529
San Salvador,13.69288,-89.199161,529
San Cristobal Verapaz,15.365662,-90.47916,2
San Rafael Pie de La Cuesta,14.932386,-91.913588,2
El Ventarron,12.136647,-86.250767,3
Los Arenales,13.435909,-88.38034,1
Unknown,13.7682,-88.129139,5189
Ayutuxtepeque,13.749885,-89.199936,1
San Jose de Cusmapa,13.28841,-86.6554,1
Rio Blanco,12.93157,-85.224113,13
La Rosita,13.927562,-84.404596,3
El Jocote,13.35664,-86.26401,2
Tierra Blanca,13.27417,-88.05611,7
San Salvador,13.69288,-89.199161,529
San Vicente,13.64121,-88.785423,37
San Salvador,13.69288,-89.199161,529
Unknown,13.447063,-88.556531,5189
Apopa,13.79833,-89.17889,32
Cerro La Torrecilla,13.816667,-88.433333,1
San Salvador,13.69288,-89.199161,529
Unknown,13.447063,-88.556531,5189
Apopa,13.79833,-89.17889,32
Tejutepeque,13.85077,-88.90406,10
Alegria,13.5,-88.4833333,9
San Salvador,13.69288,-89.199161,529
Unknown,13.78944,-86.012157,5189
Unknown,15.591807,-88.941386,5189
Pointe-A-Pitre,16.2411,-61.5331,6
Pointe-a-Pitre,16.2411,-61.5331,6
Murra,13.759041,-86.017217,3
Cuscatancingo,13.7361111,-89.1813889,1
Las Delicias,12.984322,-86.963095,4
Waslala,13.333325,-85.372013,11
Nueva Guinea,11.695904,-84.446147,8
Pointe-a-Pitre,16.2411,-61.5331,6
San Bartolome Perulapia,13.763295,-89.047796,6
Wiwili,13.85369726,-85.59315364,19
Wiwili,13.85369726,-85.59315364,19
Guatemala City,14.624422,-90.53288,247
San Bartolo Ichanmico,13.561416,-88.687385,2
Campana,13.9977778,-89.3772222,2
Tecoluca,13.536835,-88.780584,8
San Salvador,13.69288,-89.199161,529
San Salvador,13.69288,-89.199161,529
San Juan del Norte,10.944955,-83.737732,1
Las Delicias,12.984322,-86.963095,4
El Venado,12.95,-85.16667,1
California,13.437973,-88.460995,1
San Salvador,13.69288,-89.199161,529
Matiguas,12.83543,-85.462486,5
La Reina,14.195953,-89.150357,5
Ojos de Agua,14.180378,-88.892274,3
Nueva Esparta,13.784841,-87.835564,3
Guatemala City,14.624422,-90.53288,247
Tejutepeque,13.85077,-88.90406,10
San Miguel,12.15,-86.21667,65
Guatemala City,14.624422,-90.53288,247
Guatemala City,14.624422,-90.53288,247
Guatemala City,14.624422,-90.53288,247
Santa Cruz Loma,13.5666667,-88.9333333,1
Tenancingo,13.83553,-88.985462,5
San Jose Guayabal,13.84222,-89.09694,15
San Salvador,13.69288,-89.199161,529
San Salvador,13.69288,-89.199161,529
Cerros de San Pedro,13.7666667,-88.75,1
Tierra Blanca,14.129035,-89.656675,7
El Corozal,13.999777,-89.067527,1
Joya Ancha,13.414377,-88.413748,1
Jucuaran,13.2538889,-88.2477778,6
Unknown,13.445104,-88.246118,5189
Zacatecoluca,13.5,-88.8666667,15
Cerro de Guazapa,13.967553,-89.139633,3
Unknown,13.586201,-88.750773,5189
Ducuali,13.41367,-86.398163,1
Las Minas,12.82226937,-86.00213814,2
San Ignacio,14.338896,-89.178268,6
La Palma,14.316514,-89.171394,9
Boaco,12.470919,-85.659679,3
Cano Batitlan,13.05014,-84.58732,1
San Simon,13.830858,-88.226367,1
San Jorge,13.961989,-89.301935,6
San Salvador,13.69288,-89.199161,529
San Vicente,13.64121,-88.785423,37
Tejutepeque,13.85077,-88.90406,10
Anamoros,13.745556,-87.8736111,3
El Corozo,12.1,-84.9,2
San Rafael Oriente,13.3833333,-88.35,4
Santa Ana Belen,14.916667,-92,2
San Marcos,14.965261,-91.795813,14
Unknown,13.447063,-88.556531,5189
Unknown,13.447063,-88.556531,5189
Unknown,13.447063,-88.556531,5189
Unknown,13.447063,-88.556531,5189
Unknown,13.447063,-88.556531,5189
Esquipulas,14.44617806,-84.57568741,2
Wiwili,13.85369726,-85.59315364,19
Unknown,12.492724,-85.520024,5189
Unknown,12.492724,-85.520024,5189
Unknown,12.492724,-85.520024,5189
Unknown,12.492724,-85.520024,5189
Unknown,12.492724,-85.520024,5189
Unknown,12.492724,-85.520024,5189
Unknown,12.492724,-85.520024,5189
Unknown,12.492724,-85.520024,5189
Boaco,12.53840896,-85.5739212,3
Unknown,14.073693,-86.418731,5189
Alegria,13.5,-88.4833333,9
Usulutan,13.344322,-88.437463,34
Usulutan,13.344322,-88.437463,34
Usulutan,13.344322,-88.437463,34
Usulutan,13.344322,-88.437463,34
Usulutan,13.344322,-88.437463,34
Usulutan,13.344322,-88.437463,34
Usulutan,13.344322,-88.437463,34
Usulutan,13.344322,-88.437463,34
Usulutan,13.344322,-88.437463,34
Usulutan,13.344322,-88.437463,34
Unknown,13.7682,-88.129139,5189
Unknown,13.7682,-88.129139,5189
Unknown,13.7682,-88.129139,5189
Unknown,13.7682,-88.129139,5189
Unknown,13.7682,-88.129139,5189
Unknown,13.7682,-88.129139,5189
Unknown,13.7682,-88.129139,5189
Unknown,13.7682,-88.129139,5189
Unknown,13.7682,-88.129139,5189
San Miguel,13.466667,-88.183333,65
San Miguel,13.466667,-88.183333,65
San Miguel,13.466667,-88.183333,65
San Miguel,13.466667,-88.183333,65
San Miguel,13.466667,-88.183333,65
Suchitoto,13.933732,-89.025836,24
Osicala,13.805691,-88.145787,9
Guazapa,13.8769444,-89.173556,12
Suchitoto,13.933732,-89.025836,24
Suchitoto,13.933732,-89.025836,24
San Miguel,13.466667,-88.183333,65
Tierra Blanca,13.27417,-88.05611,7
Comalapa,13.498952,-89.069988,7
El Carrizal,14.176874,-88.920431,6
Chinameca,13.5,-88.35,14
Cano Sucio,10.91518,-83.68092,1
Tagua,12.53840896,-85.5739212,1
Escambray,13.091683,-86.000314,1
San Dionisio,13.285411,-88.457221,1
Jucuaran,13.2538889,-88.2477778,6
Unknown,13.7682,-88.129139,5189
Unknown,13.7682,-88.129139,5189
Unknown,13.7682,-88.129139,5189
Unknown,13.7682,-88.129139,5189
Unknown,13.7682,-88.129139,5189
Unknown,13.7682,-88.129139,5189
Unknown,13.7682,-88.129139,5189
Unknown,13.7682,-88.129139,5189
Unknown,13.7682,-88.129139,5189
Unknown,13.7682,-88.129139,5189
Unknown,13.7682,-88.129139,5189
Unknown,13.7682,-88.129139,5189
Unknown,13.7682,-88.129139,5189
Unknown,13.7682,-88.129139,5189
Unknown,13.7682,-88.129139,5189
Unknown,13.7682,-88.129139,5189
Unknown,13.7682,-88.129139,5189
Unknown,13.7682,-88.129139,5189
Unknown,13.7682,-88.129139,5189
Unknown,13.7682,-88.129139,5189
Unknown,13.7682,-88.129139,5189
Unknown,13.7682,-88.129139,5189
Unknown,13.7682,-88.129139,5189
Unknown,13.7682,-88.129139,5189
Unknown,13.7682,-88.129139,5189
Unknown,13.447063,-88.556531,5189
Unknown,13.447063,-88.556531,5189
Unknown,13.447063,-88.556531,5189
Unknown,13.447063,-88.556531,5189
Unknown,13.447063,-88.556531,5189
Unknown,13.447063,-88.556531,5189
Unknown,13.447063,-88.556531,5189
Unknown,13.447063,-88.556531,5189
Unknown,13.447063,-88.556531,5189
Unknown,13.447063,-88.556531,5189
Unknown,13.447063,-88.556531,5189
Unknown,13.447063,-88.556531,5189
Unknown,13.447063,-88.556531,5189
Unknown,13.447063,-88.556531,5189
Unknown,13.447063,-88.556531,5189
Unknown,13.447063,-88.556531,5189
Unknown,13.447063,-88.556531,5189
Unknown,13.447063,-88.556531,5189
Unknown,13.447063,-88.556531,5189
Unknown,13.447063,-88.556531,5189
Unknown,13.447063,-88.556531,5189
Unknown,13.447063,-88.556531,5189
Unknown,13.447063,-88.556531,5189
Unknown,13.447063,-88.556531,5189
San Salvador,13.69288,-89.199161,529
Unknown,13.586201,-88.750773,5189
Santa Ana Belen,14.916667,-92,2
Patulul,14.41853,-91.160843,1
San Salvador,13.69288,-89.199161,529
Santa tecla,13.6769444,-89.2797222,21
Santa tecla,13.6769444,-89.2797222,21
Santa tecla,13.6769444,-89.2797222,21
Santa tecla,13.6769444,-89.2797222,21
Santa tecla,13.6769444,-89.2797222,21
Chichontepec Volcano,13.6,-88.85,2
Unknown,13.447063,-88.556531,5189
San Salvador,13.69288,-89.199161,529
Bluefields,12.010701,-83.766037,1
Bella Guatemala,16.95007707,-90.61385108,1
Finca Bonanza,15.42583,-88.71556,1
Telpaneca,13.47348688,-86.23244476,3
El Guabo,12.30556,-85.55227,3
Juigalpa,12.10629,-85.36452,6
Juigalpa,12.10629,-85.36452,6
Rama,12.16349,-84.218941,13
Rama,12.16349,-84.218941,13
Santa Lucia Cotzumalguapa,14.333333,-91.016667,2
Quezaltepeque,13.835,-89.2744444,17
Tenancingo,13.83553,-88.985462,5
Lislique,13.802046,-87.896732,3
San Jose,9.933333,-84.083333,31
San Jose,9.933333,-84.083333,31
Jinotega,13.13070671,-85.9716835,28
Waslala,13.333325,-85.372013,11
Wiwili,13.62679,-85.8254,19
San Juan del Rio Coco,13.544303,-86.165168,5
La Sirena,13.157674,-86.37536,4
El Cua,13.367126,-85.672322,1
El Rosario,13.835758,-85.869174,2
Lolotique,13.557072,-88.349433,11
Guatemala City,14.624422,-90.53288,247
Chirilagua,13.222778,-88.1386111,2
Unknown,13.447063,-88.556531,5189
Unknown,13.447063,-88.556531,5189
Unknown,13.447063,-88.556531,5189
Unknown,13.447063,-88.556531,5189
Unknown,13.447063,-88.556531,5189
Jinotega,13.13070671,-85.9716835,28
Jinotega,13.13070671,-85.9716835,28
Jinotega,13.13070671,-85.9716835,28
El Faro,14.147318,-89.519693,1
Santa Ana,13.99417,-89.55972,40
Unknown,13.495364,-88.979678,5189
Unknown,13.495364,-88.979678,5189
El Castillo,11.01844,-84.39811,9
La Penca,12.93808,-86.27218,4
Gualache,13.4166667,-88.5,6
Gualache,13.4166667,-88.5,6
Gualache,13.4166667,-88.5,6
Gualache,13.4166667,-88.5,6
Gualache,13.4166667,-88.5,6
Gualache,13.4166667,-88.5,6
Chalatenango,14.04111,-88.938568,17
Chalatenango,14.04111,-88.938568,17
Chalatenango,14.04111,-88.938568,17
Chalatenango,14.04111,-88.938568,17
Chalatenango,14.04111,-88.938568,17
Chalatenango,14.04111,-88.938568,17
Chalatenango,14.04111,-88.938568,17
Chalatenango,14.04111,-88.938568,17
Chalatenango,14.04111,-88.938568,17
Chalatenango,14.04111,-88.938568,17
Chalatenango,14.04111,-88.938568,17
Unknown,13.77413,-89.212516,5189
Unknown,13.77413,-89.212516,5189
Unknown,13.77413,-89.212516,5189
Unknown,13.77413,-89.212516,5189
Unknown,13.77413,-89.212516,5189
Bagaces,10.526951,-85.254641,1
Salto de Liberia,10.566284,-85.387619,1
Gracias a Dios,15.88988,-89.317242,2
Puerto Cabezas,14.03507,-83.38882,7
Potonico,13.965554,-88.892274,3
San Luis de la Reina,13.814197,-88.34682,5
San Jose Guayabal,13.84222,-89.09694,15
Ciudad Barrios,13.7666667,-88.2666667,17
Carolina,13.85,-88.3,12
San Buenaventura,13.5333333,-88.3833333,5
Sociedad,13.697393,-88.007249,5
Soyapango,13.701964,-89.147774,14
Soyapango,13.701964,-89.147774,14
San Benito,13.7,-89.25,3
Chicacao,14.533333,-91.316667,2
Nebaj,15.408333,-91.147222,6
San Juan Cotzal,15.435278,-91.035556,1
El Nino,13.4275,-88.25556,1
Guatemala City,14.624422,-90.53288,247
Guatemala City,14.624422,-90.53288,247
Guatemala City,14.624422,-90.53288,247
Anguiatu,14.416667,-89.45,2
Unknown,13.447063,-88.556531,5189
Unknown,13.447063,-88.556531,5189
El Jicaro,13.83415,-86.7127,2
Alauca,13.852833,-86.685301,1
Matapalo,13.826472,-86.701744,1
Unknown,14.7515,-89.474218,5189
Guatemala City,14.624422,-90.53288,247
San Miguel de Mercedes,14.009286,-88.940189,7
La Penca,12.93808,-86.27218,4
San Pedro de Lovago,12.133803,-85.087631,3
Rio Kukra,11.8962,-83.82561,1
Atlanta,11.5833333,-84.0166667,5
Unknown,13.447063,-88.556531,5189
Berlin,13.49446,-88.530343,91
Los Cedros,12.0708333,-86.4819444,1
Poza Redonda,11.09817,-83.94608,1
El Junquillal,13.6333333,-88.6666667,5
El Junquillal,13.6333333,-88.6666667,5
El Junquillal,13.6333333,-88.6666667,5
Apastepeque,13.6666667,-88.7833333,4
Apastepeque,13.6666667,-88.7833333,4
Guatemala City,14.624422,-90.53288,247
Tecoluca,13.536835,-88.780584,8
El Junquillal,13.6333333,-88.6666667,5
San Salvador,13.69288,-89.199161,529
Guatemala City,14.624422,-90.53288,247
Aguilares,13.9572222,-89.1897222,10
Unknown,13.864829,-88.7494,5189
Unknown,13.864829,-88.7494,5189
Unknown,13.864829,-88.7494,5189
Unknown,13.864829,-88.7494,5189
Unknown,13.864829,-88.7494,5189
Unknown,13.864829,-88.7494,5189
Unknown,13.864829,-88.7494,5189
Unknown,13.864829,-88.7494,5189
Unknown,13.864829,-88.7494,5189
Unknown,13.864829,-88.7494,5189
Unknown,13.864829,-88.7494,5189
Unknown,13.864829,-88.7494,5189
Unknown,13.864829,-88.7494,5189
Unknown,13.864829,-88.7494,5189
Unknown,13.864829,-88.7494,5189
Unknown,13.864829,-88.7494,5189
Unknown,13.864829,-88.7494,5189
Unknown,13.864829,-88.7494,5189
Concepcion Quetzaltepeque,14.088915,-88.957833,6
Muy Muy,12.760148,-85.629969,1
Chinameca,13.5,-88.35,14
Chinameca,13.5,-88.35,14
Chinameca,13.5,-88.35,14
Chinameca,13.5,-88.35,14
Sayaxch‚,16.33408227,-90.16836095,1
Cuernavaca,14.58333,-89.55,7
El Sauce,14.9,-89.516667,5
Chinameca,13.5,-88.35,14
Cerro Blanco,13.51031,-86.09602,1
El Balsamo,12.836184,-85.934374,1
Las Vueltas,14.09396,-88.889278,5
Berlin,13.49446,-88.530343,91
Cojutepeque,13.7166667,-88.9333333,3
Cerro La  Caja,14,-89.8333,1
Wani,13.69517,-84.85311,1
Esteli,13.13192319,-86.34574228,11
Guatemala City,14.624422,-90.53288,247
Torola,13.9166667,-88.2333333,6
Guatemala City,14.624422,-90.53288,247
Cerro Las Brisas,13.616667,-85.983333,1
Carbonales,13.087135,-86.355572,1
Las Mesas,12.4677778,-86.0011111,1
La Trinidad,12.96589,-86.231407,5
Iziqui,13.1182,-86.22526,2
La Sirena,13.157674,-86.37536,4
Las Canas,13.819793,-86.545874,1
El Mojon,12.538914,-85.91632,1
El Coyolito,13.25417,-88.00417,2
Yamabal,13.663669,-88.172009,1
Cerro Cacahuatique,13.78543,-88.22335,1
Cuapa,12.267322,-85.382162,3
San Fernando,13.6772,-86.3153,11
Las Mercedes,12.436555,-86.717476,3
Chajul,15.487222,-91.034722,2
Xalbal,15.92509392,-90.91453934,1
Cuapa,12.267322,-85.382162,3
Guatemala City,14.624422,-90.53288,247
Los Torres,13.47049,-85.80674,1
Aguilares,13.9572222,-89.1897222,10
Guatemala City,14.624422,-90.53288,247
Nueva Guinea,11.695904,-84.446147,8
La Pradera,13.95,-87.01667,2
San Salvador,13.69288,-89.199161,529
San Salvador,13.69288,-89.199161,529
Abisinia,14.15291569,-85.07312012,3
Rio Guasanera,13.47277,-85.76709,1
El Ventarron,12.136647,-86.250767,3
El Jocote,13.35664,-86.26401,2
Pantasma,13.196432,-85.826866,6
El Zapote,13.548685,-85.781946,4
Juayua,13.8413889,-89.7455556,2
El Zapotal,13.55,-88,2
San Salvador,13.69288,-89.199161,529
San Vicente,13.64121,-88.785423,37
San Salvador,13.69288,-89.199161,529
Unknown,13.447063,-88.556531,5189
Santo Tomas,12.068668,-85.091877,7
Malacatan,14.91157,-92.054893,2
San Martin,13.738762,-89.054916,12
Unknown,13.447063,-88.556531,5189
Dulce Nombre de Maria,14.15695,-89.011475,21
Dulce Nombre de Maria,14.15695,-89.011475,21
Dulce Nombre de Maria,14.15695,-89.011475,21
Dulce Nombre de Maria,14.15695,-89.011475,21
Dulce Nombre de Maria,14.15695,-89.011475,21
Dulce Nombre de Maria,14.15695,-89.011475,21
Dulce Nombre de Maria,14.15695,-89.011475,21
Dulce Nombre de Maria,14.15695,-89.011475,21
Dulce Nombre de Maria,14.15695,-89.011475,21
Dulce Nombre de Maria,14.15695,-89.011475,21
Dulce Nombre de Maria,14.15695,-89.011475,21
Dulce Nombre de Maria,14.15695,-89.011475,21
El Junquillal,13.6333333,-88.6666667,5
San Vicente,13.64121,-88.785423,37
El delirio,12.069883,-86.476841,3
La Florida,12.366667,-84.4,3
El Zapote,13.548685,-85.781946,4
San Miguelito,11.40255,-84.89991,4
San Vicente,13.64121,-88.785423,37
San Bartolo Ichanmico,13.561416,-88.687385,2
San Rafael Cedros,13.7333333,-88.8833333,23
San Rafael Cedros,13.7333333,-88.8833333,23
San Rafael Cedros,13.7333333,-88.8833333,23
San Rafael Cedros,13.7333333,-88.8833333,23
San Rafael Cedros,13.7333333,-88.8833333,23
San Rafael Cedros,13.7333333,-88.8833333,23
Ocotal,13.63325,-86.476299,5
San Agustin,13.43204,-88.592239,14
San Juan Nonualco,13.505945,-88.897676,1
San Salvador,13.69288,-89.199161,529
Guatemala City,14.624422,-90.53288,247
Guatemala City,14.624422,-90.53288,247
Guatemala City,14.624422,-90.53288,247
El Espanolito,13.82315459,-86.72841263,1
Aguas Calientes,13.880321,-86.1678,3
San Salvador,13.69288,-89.199161,529
San Isidro,12.9319444,-86.1952778,24
Cano San Jorge,12.53345,-86.22788,1
Siuna,13.73321,-84.77725,5
Mesillas Altas,14.4,-90.583333,1
La Leona,11.15,-85.76667,1
Santo Domingo,12.38104952,-84.95390779,42
La Danta,11.76115,-85.893944,1
San Juan de Limay,13.19675886,-86.6016922,3
Cinco Pinos,13.229233,-86.86908,1
Palacaguina,13.45504,-86.405758,3
La Quebrada,13.53333,-87.15,2
San Sebastian de yali,13.33053231,-86.16239956,8
Cerro El Guayabo,13.77726,-86.24909,1
Rama,12.29344498,-84.41114474,13
Malacawas,12.85713,-85.0869,1
Saslayito,13.84504,-84.67929,1
Siuna,13.61127684,-84.86688536,5
Siuna,13.61127684,-84.86688536,5
Siuna,13.61127684,-84.86688536,5
Tejutla,14.169631,-89.102686,15
San Francisco Morazan,14.179294,-89.04989,3
Dulce Nombre de Maria,14.15695,-89.011475,21
Agua Caliente,13.24111,-87.96,9
Nombre de Jesus,14.008276,-88.728949,1
Quilali,13.5648543,-86.02829742,21
San Miguel,13.466667,-88.183333,65
Laguna de Perlas,12.34294,-83.67123,2
Laguna de Perlas,12.77739252,-83.78403043,2
Agua Caliente,13.24111,-87.96,9
San Pedro,13.664223,-88.660622,12
Ucalbitz,15.575278,-91.155833,2
Nebaj,15.408333,-91.147222,6
La Libertad,16.783116,-90.116653,15
La Esperanza,12.298125,-86.596842,2
La Penca,12.93808,-86.27218,4
La Ceiba,12.398896,-86.813327,5
La Ceiba,12.398896,-86.813327,5
Las Penitas,12.3666667,-87.0166667,1
Rio San Juan,10.91239632,-83.90875244,4
Rio San Juan,10.91239632,-83.90875244,4
Rio San Juan,10.91239632,-83.90875244,4
Ilobasco,13.85,-88.85,15
El Triunfo,13.558889,-88.43,11
San Vicente,13.64121,-88.785423,37
San Miguel,13.466667,-88.183333,65
San Miguel,13.466667,-88.183333,65
San Miguel,13.466667,-88.183333,65
San Miguel,13.466667,-88.183333,65
San Miguel,13.466667,-88.183333,65
San Miguel,13.466667,-88.183333,65
San Miguel,13.466667,-88.183333,65
San Miguel,13.466667,-88.183333,65
Usulutan,13.344322,-88.437463,34
La Union,13.3369444,-87.8438889,15
El Limon,14.050872,-88.994625,4
Tenango,13.879493,-89.01261,2
El Jute,13.44194,-88.15139,1
El Gavilan,14.051883,-89.435711,2
Santa Barbara,14.43386,-91.227181,5
Condega,13.34782599,-86.34290695,6
Acoyapa,11.9666667,-85.1666667,6
La Penca,12.93808,-86.27218,4
Finca Panama,14.498773,-91.188338,1
Usuncinta,16.912033,-90.299578,1
Cojutepeque,13.7166667,-88.9333333,3
La Gateada,11.999035,-84.779857,4
Valle Congojas,13.80573,-85.87212,1
Nueva Guinea,11.70162226,-84.33058167,8
Cano Piedra Fina,11.84402,-84.27144,1
Guatemala City,14.624422,-90.53288,247
Corinto,13.818333,-87.9713889,18
Sociedad,13.697393,-88.007249,5
Tenancingo,13.83553,-88.985462,5
Chalatenango,14.04111,-88.938568,17
Guarnecia,14.1,-89.4333333,1
La Milpa,12.73272,-86.79165,1
San Lucas,13.4138,-86.6111,1
La Manga,11.866667,-84.816667,1
La Laguna,14.070743,-88.905453,7
Sesori,13.719546,-88.360633,7
La Reforma,13.8277778,-89.425,2
San Pedro,13.664223,-88.660622,12
Chichontepec Volcano,13.6,-88.85,2
Cerro de Guazapa,13.967553,-89.139633,3
San Pedro del Norte,13.27624,-86.87844,3
Presillita,12.14866,-84.4081,1
Las Delicias,12.984322,-86.963095,4
Mexicanos,13.733353,-89.216671,2
Santo Domingo,13.61704477,-86.2785287,42
Santo Domingo,12.265244,-85.08308,42
Cara de Mono,12.122619,-84.47239,1
Boaco Viejo,12.53840896,-85.5739212,1
Mulukuku,13.17318,-84.95545,3
Bilampi,12.9333333,-85.0333333,3
Bilampi,12.9333333,-85.0333333,3
San Jeronimo,11.988947,-86.087363,5
La Libertad,12.21635,-85.16595,15
Cana de Castilla,12.68154,-86.00412,1
El Ayote,12.495322,-84.818677,1
La Sirena,13.157674,-86.37536,4
San Jose de Bocay,13.54204,-85.53942,10
Santa Tecla,13.6769444,-89.2797222,21
Miraflores,12.19,-86.3313889,15
Los Planes,13.78108,-86.5534,1
El Corozo,12.386632,-84.316052,2
Wiwili,13.62679,-85.8254,19
Wiwili,13.62679,-85.8254,19
Guazapa,13.8769444,-89.173556,12
Palin,14.403889,-90.698611,1
Medio Mundo,11.88333,-86.01667,2
Medio Mundo,11.88333,-86.01667,2
Usulutan,13.344322,-88.437463,34
San Miguel,13.466667,-88.183333,65
Los Cerritos,11.6833333,-84.95,1
San Pedro,13.27624,-86.87844,12
San Rafael cedros,13.7333333,-88.8833333,23
Valle Grande,13.822972,-88.253586,1
Chalatenango,14.04111,-88.938568,17
Suchitoto,13.933732,-89.025836,24
Unknown,13.866196,-89.056153,5189
El Cacao,12.86334418,-87.22782516,1
Wiwili,13.62679,-85.8254,19
Paiwas,12.84803,-85.23751,1
Xecoxo,15.437835,-91.206437,1
Xepac,14.853826,-90.971825,1
Wiwili,13.62679,-85.8254,19
San Jose de Secce,-12.57906,-74.228928,4
Huaral,-11.495531,-77.207192,7
Huarhua,-15.188188,-72.964306,2
Arequipa,-16.409501,-71.537384,18
Chiclayo,-6.774056,-79.843559,17
Juliaca,-15.493296,-70.135574,8
Cali,3.420628,-76.522119,241
Cali,3.420628,-76.522119,241
Cali,3.420628,-76.522119,241
Cali,3.420628,-76.522119,241
Cali,3.420628,-76.522119,241
Cali,3.420628,-76.522119,241
Cali,3.420628,-76.522119,241
Cali,3.420628,-76.522119,241
Cali,3.420628,-76.522119,241
Cali,3.420628,-76.522119,241
Caucasia,7.987804,-75.197092,4
Pampa Coris,-12.518418,-74.373658,3
Concepcion,-11.918478,-75.312889,58
Lima,-12.046378,-77.042791,1802
Lima,-12.046378,-77.042791,1802
Lima,-12.046378,-77.042791,1802
Machente,-12.683056,-73.8725,3
Santander de Quilichao,3.00879,-76.4859,12
Buenos Aires,-34.6037,-58.381503,181
Bogota,4.5981,-74.07603,605
Montevideo,-34.891151,-56.187214,23
Florida,3.322222,-76.234722,18
Palmira,3.529901,-76.298006,17
Medellin,6.270526,-75.572173,680
Huancayo district,-12.068306,-75.210163,27
Medellin,6.270526,-75.572173,680
La Mar district,-12.916667,-73.833333,6
Tinte,-13.225278,-74.139167,3
Huanta,-12.939782,-74.247478,30
Barrancabermeja,7.060051,-73.853115,72
Huari district,-9.34736,-77.170903,2
Medellin,6.270526,-75.572173,680
Achi district,8.568451,-74.55436,4
Santa Elena,6.209539,-75.497642,10
Ayacucho,-13.163874,-74.223564,233
Bogota,4.5981,-74.07603,605
Mollepata,-13.508825,-72.527962,3
Carhuanca,-13.755419,-73.78756,16
Carhuanca,-13.755419,-73.78756,16
Carhuanca,-13.755419,-73.78756,16
Carhuanca,-13.755419,-73.78756,16
Carhuanca,-13.755419,-73.78756,16
Carhuanca,-13.755419,-73.78756,16
Carhuanca,-13.755419,-73.78756,16
Carhuanca,-13.755419,-73.78756,16
Carhuanca,-13.755419,-73.78756,16
Carhuanca,-13.755419,-73.78756,16
Carhuanca,-13.755419,-73.78756,16
Cerro de Pasco,-10.680652,-76.259918,72
Cerro de Pasco,-10.677372,-76.261149,72
Cerro de Pasco,-10.680652,-76.259918,72
Cerro de Pasco,-10.680652,-76.259918,72
Medellin,6.270526,-75.572173,680
Bogota,4.5981,-74.07603,605
Cali,3.420628,-76.522119,241
Cali,3.420628,-76.522119,241
Cali,3.420628,-76.522119,241
Cali,3.420628,-76.522119,241
Carhuamayo,-10.920784,-76.059497,2
Lima,-12.046378,-77.042791,1802
Gorgor,-10.62075,-77.040939,1
Medellin,6.270526,-75.572173,680
Medellin,6.270526,-75.572173,680
Medellin,6.270526,-75.572173,680
Medellin,6.270526,-75.572173,680
Medellin,6.270526,-75.572173,680
Medellin,6.270526,-75.572173,680
Medellin,6.270526,-75.572173,680
Huamanpata,-13.517999,-72.574661,1
Unknown,6.643708,-73.653621,5189
Unknown,6.643708,-73.653621,5189
Huanca Sancos,-13.920242,-74.334553,1
Ayacucho,-13.163874,-74.223564,233
Garzon,2.19673,-75.62909,4
Ayacucho district,-14.31884,-74.378173,31
Ayacucho,-13.163874,-74.223564,233
Ayacucho,-13.163874,-74.223564,233
Ayacucho,-13.163874,-74.223564,233
Pitalito,1.851988,-76.046976,9
Barranquilla,10.981412,-74.778319,33
Pichari,-12.520278,-73.828056,3
Pataz,-7.785833,-77.593333,2
Santa Rosa,1.700854,-76.572882,20
Santa Rosa,1.700854,-76.572882,20
Lima,-12.046378,-77.042791,1802
Lima,-12.046378,-77.042791,1802
Lima,-12.046378,-77.042791,1802
Lima,-12.046378,-77.042791,1802
Lima,-12.046378,-77.042791,1802
Oruro,-17.966712,-67.116624,2
Lima,-12.046378,-77.042791,1802
Barranquilla,10.981412,-74.778319,33
Tocache,-8.18885,-76.510838,9
Pucayacu,-8.752234,-76.121658,4
Sincos,-11.891427,-75.387054,1
Tingo Maria,-9.297478,-75.996312,25
Medellin,6.270526,-75.572173,680
Medellin,6.270526,-75.572173,680
Lima,-12.046378,-77.042791,1802
La Paz,-16.500194,-68.150162,79
La Paz,-16.500194,-68.150162,79
Rio Negro,6.153669,-75.37416,16
Santiago,-33.379709,-70.675213,982
San Cristobal district,9.882081,-75.254469,2
La Paz,-16.500194,-68.150162,79
Nacimiento district,-37.505926,-72.673688,1
Chillan District,-36.609282,-72.102064,1
La Soledad,7.43334,-65.333135,1
Santiago,-33.469115,-70.641997,982
Lota,-37.087761,-73.16021,10
La Paz,-16.500194,-68.150162,79
Santiago,-33.469115,-70.641997,982
Medellin,6.270526,-75.572173,680
Cali,3.420628,-76.522119,241
Quito,-0.181439,-78.467266,69
La Paz,-16.500194,-68.150162,79
La Paz,-16.500194,-68.150162,79
La Paz,-16.500194,-68.150162,79
Jurado,7.10577,-77.76488,5
Cali,3.420628,-76.522119,241
Chillurco,1.891667,-76.145556,1
Huancayo,-12.068306,-75.210163,155
Lima,-12.046378,-77.042791,1802
El Copey,10.14864,-73.96144,3
Bogota,4.5981,-74.07603,605
Santiago,-33.469115,-70.641997,982
Lima,-12.046378,-77.042791,1802
Lima,-12.124409,-76.977888,1802
Lima,-12.121736,-77.029552,1802
Bogota,4.674355,-74.04445,605
Medellin,6.270526,-75.572173,680
Pampa Cangallo,-13.557452,-74.195661,4
Bogota,4.5981,-74.07603,605
Medellin,6.270526,-75.572173,680
Puerto Valdivia,7.287778,-75.394444,5
Pampa Cangallo,-13.557452,-74.195661,4
Bogota,4.5981,-74.07603,605
Concepcion,-36.818977,-73.050319,58
Alto de la Rosa,3.89744,-75.53936,1
Uribe,3.24114,-74.35539,7
Bogota,4.5981,-74.07603,605
Huancayo,-12.068306,-75.210163,155
Casapampa,-8.950653,-77.770793,1
Huancayo,-12.068306,-75.210163,155
Santiago,-33.434848,-70.615731,982
Vina Del Mar,-33.024705,-71.552216,58
Rancagua,-34.170331,-70.740822,11
Santiago,-33.469115,-70.641997,982
Santiago,-33.469115,-70.641997,982
Valparaiso,-33.045632,-71.620529,79
Santiago,-33.469115,-70.641997,982
Huancayo,-12.068306,-75.210163,155
Santiago,-33.469115,-70.641997,982
Santiago,-33.469115,-70.641997,982
Bucaramanga,7.131202,-73.124973,81
Cali,3.420628,-76.522119,241
Medellin,6.270526,-75.572173,680
Yumbo,3.583748,-76.495727,9
Popayan,2.44186,-76.60617,25
Bucaramanga,7.131202,-73.124973,81
Medellin,6.270526,-75.572173,680
Cali,3.420628,-76.522119,241
Cali,3.420628,-76.522119,241
Pampa Cangallo,-13.557452,-74.195661,4
Medellin,6.270526,-75.572173,680
Yumbo,3.583748,-76.495727,9
Yumbo,3.583748,-76.495727,9
Lima,-12.046378,-77.042791,1802
Lima,-12.026656,-76.889678,1802
Lima,-12.046378,-77.042791,1802
Lima,-12.046378,-77.042791,1802
Lima,-12.046378,-77.042791,1802
Lima,-12.046378,-77.042791,1802
Lima,-12.046378,-77.042791,1802
Lima,-12.046378,-77.042791,1802
Lima,-12.046378,-77.042791,1802
Lima,-12.046378,-77.042791,1802
Lima,-12.046378,-77.042791,1802
San Martin,-34.575951,-58.53727,12
Santiago,-33.469115,-70.641997,982
Santiago,-33.469115,-70.641997,982
Naranjillo,-5.81526,-77.382685,1
Bogota,4.5981,-74.07603,605
Santiago,-33.469115,-70.641997,982
Santiago,-33.469115,-70.641997,982
Pradera,3.41866,-76.24198,3
Santiago,-33.469115,-70.641997,982
Popayan,2.44186,-76.60617,25
Popayan,2.44186,-76.60617,25
Medellin,6.270526,-75.572173,680
Jamundi,3.261782,-76.540886,5
Jamundi,3.261782,-76.540886,5
Jamundi,3.261782,-76.540886,5
San Jose del Guaviare,2.56855,-72.64184,10
Colombia,3.375833,-74.801389,2
Valparaiso,-33.045632,-71.620529,79
Valparaiso,-33.045632,-71.620529,79
Santiago,-33.469115,-70.641997,982
Santiago,-33.469115,-70.641997,982
Buenos Aires,-34.6037,-58.381503,181
Vina Del Mar,-33.024705,-71.552216,58
Valparaiso,-33.045632,-71.620529,79
Valparaiso,-33.045632,-71.620529,79
Guayaquil,-2.170832,-79.922359,31
Santiago,-33.469115,-70.641997,982
Santiago,-33.469115,-70.641997,982
Santiago,-33.469115,-70.641997,982
Santiago,-33.469115,-70.641997,982
Melipilla,-33.686068,-71.216633,1
Concepcion,-36.818977,-73.050319,58
Palmira,3.529901,-76.298006,17
Palmira,3.529901,-76.298006,17
Cali,3.420628,-76.522119,241
Cali,3.420628,-76.522119,241
Cali,3.420628,-76.522119,241
Yumbo,3.583748,-76.495727,9
Guayaquil,-2.170832,-79.922359,31
Tigrera,11.286866,-73.099449,1
Lima,-12.0267,-76.889584,1802
Cerro de Pasco,-10.680652,-76.259918,72
La Victoria,-38.232212,-72.351441,6
Lima,-12.046378,-77.042791,1802
Belalcazar,4.995278,-75.812778,6
Lima,-12.046378,-77.042791,1802
Lima,-12.046378,-77.042791,1802
Lima,-12.046378,-77.042791,1802
San Fernando,-34.585716,-70.991131,11
Popayan,2.44186,-76.60617,25
Neiva district,2.925561,-75.290777,2
Toribio,2.95485,-76.26825,17
Concepcion,-36.818977,-73.050319,58
Lima,-12.125506,-76.996347,1802
Lima,-12.046378,-77.042791,1802
Lima,-12.046378,-77.042791,1802
Lima,-12.046378,-77.042791,1802
Lima,-12.046378,-77.042791,1802
San Gil,6.554507,-73.133283,1
Guadalupe,6.81429,-75.2406,5
Darien,3.931111,-76.483781,1
Lima,-12.046378,-77.042791,1802
Buenos Aires,-34.6037,-58.381503,181
Huancayo,-12.068306,-75.210163,155
San Juan,-31.535203,-68.538315,27
San Juan,-31.535203,-68.538315,27
Buenos Aires,-34.6037,-58.381503,181
Resistencia,-27.451632,-58.986198,3
Buenos Aires,-34.6037,-58.381503,181
La Plata,-34.921295,-57.954333,9
Concepcion,-36.818977,-73.050319,58
Guayaquil,-2.170832,-79.922359,31
Lima,-12.046378,-77.042791,1802
Lima,-12.046378,-77.042791,1802
Quilmes,-34.726025,-58.254356,1
Lima,-12.046378,-77.042791,1802
Lima,-12.046378,-77.042791,1802
Lima,-12.046378,-77.042791,1802
Lima,-12.046378,-77.042791,1802
Lima,-12.046378,-77.042791,1802
Lima,-12.046378,-77.042791,1802
Lima,-12.046378,-77.042791,1802
Dos Quebradas,4.837712,-75.66807,4
Palmayoc,-12.684167,-72.64,1
Lima,-12.046378,-77.042791,1802
Unknown,0.968179,-79.65172,5189
Unknown,0.968179,-79.65172,5189
Trujillo,-8.111825,-79.02866,23
Valparaiso,-33.045632,-71.620529,79
Valparaiso,-33.045632,-71.620529,79
Santiago,-33.469115,-70.641997,982
Santiago,-33.469115,-70.641997,982
Santiago,-33.469115,-70.641997,982
Santiago,-33.469115,-70.641997,982
Santiago,-33.469115,-70.641997,982
Chiclayo,-6.779131,-79.83942,17
Medellin,6.270526,-75.572173,680
Lima,-12.046378,-77.042791,1802
Guayaquil,-2.170832,-79.922359,31
Cerro De Pasco,-10.680652,-76.259918,72
Florida,3.322222,-76.234722,18
Bogota,4.5981,-74.07603,605
Bogota,4.5981,-74.07603,605
Bogota,4.5981,-74.07603,605
Bogota,4.5981,-74.07603,605
Bogota,4.5981,-74.07603,605
Bogota,4.5981,-74.07603,605
Bogota,4.5981,-74.07603,605
Bogota,4.5981,-74.07603,605
Bogota,4.5981,-74.07603,605
Bogota,4.753487,-74.088833,605
La Magdalena,5.080683,-74.486998,2
La Magdalena,5.080683,-74.486998,2
Bogota,4.5981,-74.07603,605
Valparaiso,-33.045632,-71.620529,79
Santiago,-33.469115,-70.641997,982
Rancagua,-34.170331,-70.740822,11
Santiago,-33.469115,-70.641997,982
Santiago,-33.469115,-70.641997,982
Monterrico,-11.024674,-75.405337,2
Lima,-12.046378,-77.042791,1802
Bogota,4.60148,-74.079167,605
Unknown,6.643708,-73.653621,5189
Unknown,6.643708,-73.653621,5189
Unknown,6.643708,-73.653621,5189
Lima,-12.046378,-77.042791,1802
Huamachuco,-7.815617,-78.048885,4
Huamachuco,-7.815617,-78.048885,4
Unknown,-8.143593,-78.475195,5189
Medellin,6.270526,-75.572173,680
Siberia,4.712975,-73.947004,3
El Tarra,8.57451,-73.09339,14
Chuschi,-13.585034,-74.352003,2
Lima,-12.046378,-77.042791,1802
Lima,-12.046378,-77.042791,1802
Lima,-12.046378,-77.042791,1802
Lima,-12.046378,-77.042791,1802
Lima,-12.046378,-77.042791,1802
Lima,-12.046378,-77.042791,1802
Lima,-12.046378,-77.042791,1802
Lima,-12.046378,-77.042791,1802
Lima,-12.046378,-77.042791,1802
Sanagoran,-7.786564,-78.14146,9
Sanagoran,-7.786564,-78.14146,9
Lambayeque,-6.704125,-79.906227,1
Algamarca,-7.599726,-78.250399,1
Cajamarca,-7.161747,-78.512786,7
Santander de Quilichao,3.00879,-76.4859,12
Paramillo,5.06259,-74.61695,2
Corinto district,3.173882,-76.259454,5
Matucana,-11.844722,-76.386111,3
Buenos Aires,-34.6037,-58.381503,181
San Jose de Secce,-12.57906,-74.228928,4
Ocobamba,-13.481944,-73.561111,1
Bogota district,4.5981,-74.07603,11
Cali district,3.420628,-76.522119,9
Cali,3.420628,-76.522119,241
Buenos Aires,-34.6037,-58.381503,181
Florida,-36.823788,-72.668472,18
Florida,-36.823788,-72.668472,18
Santiago,-33.469115,-70.641997,982
Santiago,-33.469115,-70.641997,982
Santiago,-33.469115,-70.641997,982
Bolivar,10.266667,-75.466667,7
Morro,6.40005,-75.25,1
Sacharacay,-13.080678,-73.849232,2
Unknown,6.547306,-71.002231,5189
Bolivar,10.266667,-75.466667,7
Cano Limon,6.931857,-71.157523,4
Puente Piedra,-11.86707,-77.077373,3
Santiago,-33.469115,-70.641997,982
Valparaiso,-33.045632,-71.620529,79
Santiago,-33.469115,-70.641997,982
Tigre,-34.425087,-58.579659,1
Buga district,3.899723,-76.302032,3
Santiago,-33.469115,-70.641997,982
Santa Rosa,1.700854,-76.572882,20
Cordoba,-31.399301,-64.182129,28
Unknown,3.800889,-76.641271,5189
Buga district,3.899723,-76.302032,3
La Mar district,-12.916667,-73.833333,6
Vina del Mar,-33.024705,-71.552216,58
Vina del Mar,-33.024705,-71.552216,58
Bogota,4.5981,-74.07603,605
Bogota,4.5981,-74.07603,605
Bogota,4.5981,-74.07603,605
Bogota,4.5981,-74.07603,605
Bogota,4.5981,-74.07603,605
Lima,-12.046378,-77.042791,1802
Lima,-12.046378,-77.042791,1802
Lima,-12.046378,-77.042791,1802
Lima,-12.046378,-77.042791,1802
Lima,-12.046378,-77.042791,1802
Buenos Aires,-34.6037,-58.381503,181
Lima,-12.046378,-77.042791,1802
La Plata,-34.921295,-57.954333,9
Lima,-12.046378,-77.042791,1802
Lima,-12.043241,-77.042954,1802
Lima,-12.046378,-77.042791,1802
Lima,-12.046378,-77.042791,1802
Cusco district,-13.531688,-71.966924,3
Bogota,4.5981,-74.07603,605
Bogota,4.5981,-74.07603,605
Bogota,4.5981,-74.07603,605
Bogota,4.5981,-74.07603,605
Bogota,4.5981,-74.07603,605
Ginebra,3.749597,-76.166856,2
Guacari,3.76299,-76.33443,1
Chanchabamba,-16.387975,-71.559042,1
Huallacancha,-11.833889,-75.476389,1
Santiago,-33.469115,-70.641997,982
Santiago,-33.469115,-70.641997,982
Bogota,4.5981,-74.07603,605
Bogota,4.5981,-74.07603,605
cali,3.420628,-76.522119,241
Saravena district,6.95284,-71.87514,14
Rosario,-32.951052,-60.666365,15
Tame district,6.46052,-71.72989,7
Tame district,6.46052,-71.72989,7
Betoyes,6.49249,-71.55696,2
Saravena,6.95284,-71.87514,42
Tame,6.46052,-71.72989,25
Lima,-12.046378,-77.042791,1802
Unknown,2.243589,-77.010385,5189
Andahuaylas,-13.6575,-73.383333,6
Saravena,6.95284,-71.87514,42
Bogota,4.5981,-74.07603,605
Bogota,4.5981,-74.07603,605
Bogota,4.5981,-74.07603,605
Bucaramanga,7.131202,-73.124973,81
Temuco,-38.734133,-72.584651,35
Salao,11.41668,-72.26661,1
Anzoategui,4.629991,-75.095351,2
Santiago,-33.469115,-70.641997,982
Santiago,-33.469115,-70.641997,982
Santiago,-33.469115,-70.641997,982
Santiago,-33.469115,-70.641997,982
Santiago,-33.469115,-70.641997,982
Santiago,-33.469115,-70.641997,982
Santiago,-33.469115,-70.641997,982
Santiago,-33.469115,-70.641997,982
Santiago,-33.469115,-70.641997,982
Santiago,-33.469115,-70.641997,982
Caceres,7.57851,-75.35023,7
Huaytara,-13.604444,-75.353111,1
Santiago,-33.469115,-70.641997,982
Santiago,-33.469115,-70.641997,982
Santiago,-33.469115,-70.641997,982
Corozal,9.31585,-75.29277,2
Bogota,4.5981,-74.07603,605
Bogota,4.5981,-74.07603,605
Caceres,7.57851,-75.35023,7
Cali,3.420628,-76.522119,241
Cerro de Pasco,-10.680652,-76.259918,72
Unknown,2.243589,-77.010385,5189
Unknown,3.800889,-76.641271,5189
Santiago,-33.469115,-70.641997,982
Unknown,6.547306,-71.002231,5189
Unknown,6.547306,-71.002231,5189
Huancavelica,-12.787148,-74.973207,22
Cali,3.420628,-76.522119,241
Piendamo,2.63874,-76.52915,5
Suaita,6.10134,-73.44277,1
Andahuaylas,-13.6575,-73.383333,6
Yarima,6.83191,-73.71195,2
Asuncion,-25.282773,-57.63561,24
Saravena,6.95284,-71.87514,42
Ayacucho,-13.163874,-74.223564,233
Limache,-33.008517,-71.259107,1
Genova,4.2045,-75.79185,3
Lagunas,-5.228146,-75.676619,1
Las Condes,-33.411667,-70.55,3
Mondomo,2.892423,-76.553158,3
Santiago,-33.469115,-70.641997,982
Santiago,-33.469115,-70.641997,982
San Carlos,6.1876,-74.99429,31
Herrera,3.28723,-75.81777,2
Genova,4.2045,-75.79185,3
Quito,-0.181439,-78.467266,69
Uchuraccay,-12.825945,-74.111516,1
Piura,-5.197037,-80.626621,6
Lima,-12.046378,-77.042791,1802
Rancagua,-34.170331,-70.740822,11
Coronel,-37.029655,-73.144447,4
Lota,-37.092019,-73.154582,10
Concepcion,-36.818977,-73.050319,58
Concepcion,-36.818977,-73.050319,58
Santiago,-33.469115,-70.641997,982
Quito,-0.181439,-78.467266,69
Misiguay,8.624722,-75.955556,1
Unknown,6.643708,-73.653621,5189
Zaragoza,7.491752,-74.868183,32
Providencia,-2.083333,-73.966667,2
La Paz,-16.500194,-68.150162,79
Iquitos,-3.743667,-73.251874,4
Lurigancho,-12.003379,-76.918423,8
Unknown,8.402925,-75.899867,5189
Unknown,8.402925,-75.899867,5189
Arauquita,7.027345,-71.428555,19
Unknown,6.547306,-71.002231,5189
Lima,-12.046378,-77.042791,1802
Lima,-12.046378,-77.042791,1802
Lima,-12.046378,-77.042791,1802
Lima,-12.046378,-77.042791,1802
Santiago,-33.494536,-70.651421,982
Chilcaccasa,-15.334167,-73.790556,1
Tome,-36.613437,-72.958714,1
Concepcion,-36.818977,-73.050319,58
Talca,-35.43058,-71.65762,14
La Serena,-29.906897,-71.25103,12
La Serena,-29.906897,-71.25103,12
Antofagasta,-23.650193,-70.400018,5
Antofagasta,-23.650193,-70.400018,5
Antofagasta,-23.650193,-70.400018,5
Iquitos,-3.743667,-73.251874,4
Iquitos,-3.743667,-73.251874,4
Rio Frio,10.90584,-74.172483,5
Chacamachay,-14.125002,-72.164936,1
San Pedro de Uraba,8.283388,-76.383404,5
Buga,3.899723,-76.302032,3
Retama,-12.267202,-75.172922,2
Lima,-12.046378,-77.042791,1802
Lima,-12.046378,-77.042791,1802
Lima,-12.046378,-77.042791,1802
San Pedro de Uraba,8.283388,-76.383404,5
Canaria,-13.921389,-73.905278,2
Arequipa,-16.409501,-71.537384,18
Lima,-12.046378,-77.042791,1802
Lima,-12.046378,-77.042791,1802
Villa Alemana,-33.047737,-71.37341,7
Villa Alemana,-33.047737,-71.37341,7
Santiago,-33.469115,-70.641997,982
Lima,-12.046378,-77.042791,1802
Buenos Aires,-34.6037,-58.381503,181
Timana,1.97449,-75.93196,1
Manizales,5.067866,-75.517482,8
Santiago,-33.469115,-70.641997,982
Bogota,4.5981,-74.07603,605
Necocli,8.42414,-76.786797,3
Lima,-12.046378,-77.042791,1802
Lima,-12.026656,-76.889678,1802
Santiago,-33.469115,-70.641997,982
Santiago,-33.469115,-70.641997,982
Bogota,4.5981,-74.07603,605
Bogota,4.5981,-74.07603,605
Medellin,6.270526,-75.572173,680
Santiago,-33.469115,-70.641997,982
Santiago,-33.469115,-70.641997,982
Cali,3.420628,-76.522119,241
Santiago,-33.469115,-70.641997,982
Medellin,6.270526,-75.572173,680
Hormiga,3.72857,-69.55075,2
Cali,3.420628,-76.522119,241
Lima,-12.046378,-77.042791,1802
Lima,-12.046378,-77.042791,1802
Iquique,-20.216805,-70.141356,4
Iquique,-20.216805,-70.141356,4
Balboa,2.03955,-77.21702,5
Medellin,6.270526,-75.572173,680
La Union,4.53581,-76.10659,15
Tablachaca,-12.463318,-74.787747,1
Andahuaylas,-13.666729,-73.348764,6
La Tulia,4.38363,-76.24495,1
Vicos,-9.328533,-77.553494,2
Vilcashuaman,-13.653143,-73.953982,11
Vicos,-9.328533,-77.553494,2
Lima,-12.046378,-77.042791,1802
Sevilla,4.26889,-75.9361,15
Santiago,-33.469115,-70.641997,982
Armenia district,4.528694,-75.703846,2
Bugalagrande,4.211944,-76.155556,1
Lima,-12.046378,-77.042791,1802
Lima,-12.046378,-77.042791,1802
Lima,-12.046378,-77.042791,1802
Lima,-12.046378,-77.042791,1802
Lima,-12.046378,-77.042791,1802
La Estrella,6.15782,-75.6436,3
Guayaquil,-2.170832,-79.922359,31
Putaccasa,-14.049369,-74.382221,2
Putaccasa,-14.049369,-74.382221,2
Huanuco,-9.929478,-76.239738,15
Huanuco,-9.929478,-76.239738,15
Huanuco,-9.929478,-76.239738,15
Huanuco,-9.929478,-76.239738,15
Huanuco,-9.929478,-76.239738,15
Huanuco,-9.929478,-76.239738,15
Huanuco,-9.929478,-76.239738,15
Iquique,-20.216805,-70.141356,4
Santiago,-33.469115,-70.641997,982
Cali,3.420628,-76.522119,241
Arequipa,-16.409501,-71.537384,18
Santiago,-33.469115,-70.641997,982
Lima,-12.046378,-77.042791,1802
Bogota,4.5981,-74.07603,605
Salgar,5.963316,-75.978722,5
Bogota,4.5981,-74.07603,605
Santiago,-33.469115,-70.641997,982
Valparaiso,-33.045632,-71.620529,79
La Laguna,4.20515,-74.71691,7
Jambalo,2.85,-76.316667,10
Bogota,4.5981,-74.07603,605
Villa Alemana,-33.047737,-71.37341,7
Valparaiso,-33.045632,-71.620529,79
Villa Alemana,-33.038611,-71.353056,7
Villa Alemana,-33.038611,-71.353056,7
Pitayo,2.750014,-76.300055,3
Pitayo,2.750014,-76.300055,3
Jambalo,2.85,-76.316667,10
Santiago,-33.469115,-70.641997,982
Lima,-12.046378,-77.042791,1802
Bogota,4.5981,-74.07603,605
Salta,-24.782902,-65.412155,1
Lima,-12.121736,-77.029552,1802
Penas Blancas,5.26331,-75.86969,1
Montevideo,-34.891151,-56.187214,23
Santiago,-33.469115,-70.641997,982
Santiago,-33.469115,-70.641997,982
Sevilla,4.26889,-75.9361,15
Cali,3.420628,-76.522119,241
San Juan de Cesar,10.77259,-73.00454,3
Bogota,4.5981,-74.07603,605
Padilla,3.22425,-76.31368,3
Santiago,-33.469115,-70.641997,982
Santiago,-33.469115,-70.641997,982
Cali,3.420628,-76.522119,241
Vina del Mar,-33.024705,-71.552216,58
Quilpue,-33.050334,-71.431714,7
Miranda,3.253279,-76.228219,8
Pereira,4.814278,-75.694558,25
Callao,-12.050934,-77.126044,35
Yumbo,3.583748,-76.495727,9
Paz de Ariporo,5.88054,-71.89239,4
Bogota,4.5981,-74.07603,605
Bogota,4.5981,-74.07603,605
Bogota,4.5981,-74.07603,605
Cali,3.420628,-76.522119,241
Bogota,4.5981,-74.07603,605
La Paz,-16.500194,-68.150162,79
La Paz,-16.500194,-68.150162,79
La Paz,-16.500194,-68.150162,79
Unknown,3.800889,-76.641271,5189
Bogota,4.5981,-74.07603,605
Buenos Aires,-34.6037,-58.381503,181
Concepcion,-36.818977,-73.050319,58
Ayacucho,-13.163874,-74.223564,233
Lima,-12.046378,-77.042791,1802
Porculla,-5.8225,-79.512222,2
Cartago,4.74871,-75.91319,2
Florida,3.322222,-76.234722,18
Buenos Aires,-34.6037,-58.381503,181
Chimbote,-9.0634,-78.583605,25
Chimbote,-9.0634,-78.583605,25
Chimbote,-9.0634,-78.583605,25
Rancagua,-34.170331,-70.740822,11
Rancagua,-34.170331,-70.740822,11
Corculla,-15.263218,-73.200562,1
Chimbote,-9.05621,-78.578613,25
Ayacucho,-13.163874,-74.223564,233
Callao,-12.050934,-77.126044,35
Lima,-12.046378,-77.042791,1802
Florida,3.322222,-76.234722,18
Lima,-12.046378,-77.042791,1802
Laramate,-14.286415,-74.843105,1
Quito,-0.181439,-78.467266,69
Bogota,4.5981,-74.07603,605
Medellin,6.270526,-75.572173,680
Medellin,6.270526,-75.572173,680
Medellin,6.270526,-75.572173,680
Medellin,6.270526,-75.572173,680
Medellin,6.270526,-75.572173,680
Medellin,6.270526,-75.572173,680
El Castillo district,3.56375,-73.79515,3
Hualla,-13.849976,-73.950699,2
Bogota,4.5981,-74.07603,605
Bogota,4.5981,-74.07603,605
Bogota,4.605717,-74.107112,605
Ayacucho,-13.163874,-74.223564,233
Chupon,-13.26274,-73.38769,1
Rancagua,-34.170331,-70.740822,11
Rancagua,-34.170331,-70.740822,11
Rancagua,-34.170331,-70.740822,11
Medellin,6.270526,-75.572173,680
Medellin,6.270526,-75.572173,680
Tulua,4.085809,-76.197188,17
Alto del Puerto,-33.0825,-71.616389,1
Tulua,4.085809,-76.197188,17
Topaipi,5.336134,-74.303539,2
Pozuzo,-10.070965,-75.550687,2
Morichal Viejo,5.348284,-71.083204,1
Santiago,-33.469115,-70.641997,982
Buenos Aires,-34.6037,-58.381503,181
Esperanza,-9.772185,-70.707926,16
Ayacucho,-13.163874,-74.223564,233
Ayacucho,-13.163874,-74.223564,233
Ayacucho,-13.163874,-74.223564,233
Lima,-12.046378,-77.042791,1802
Lima,-12.046378,-77.042791,1802
Lima,-12.046378,-77.042791,1802
Lima,-12.046378,-77.042791,1802
Lima,-12.046378,-77.042791,1802
Lima,-12.046378,-77.042791,1802
Lima,-12.046378,-77.042791,1802
Lima,-12.046378,-77.042791,1802
Bogota,4.5981,-74.07603,605
Cali,3.420628,-76.522119,241
Tabatinga,-4.231455,-69.936936,2
Hualla,-13.849802,-73.950565,2
Santiago,-33.469115,-70.641997,982
San Isidro,-34.470829,-58.52861,24
Rosapata,-15.234393,-69.527326,1
Caucasia,7.987804,-75.197092,4
Sucre,2.0376,-76.92505,13
Buenos Aires,-34.6037,-58.381503,181
Quilpue,-33.050334,-71.431714,7
Concepcion,-36.818977,-73.050319,58
Villa el Salvador,-12.216222,-76.941544,1
Santiago,-33.469115,-70.641997,982
Lima,-12.046378,-77.042791,1802
Medellin,6.270526,-75.572173,680
Buenos Aires,-34.6037,-58.381503,181
Lima,-12.046378,-77.042791,1802
Pitayo,2.750014,-76.300055,3
Huanuco,-9.929478,-76.239738,15
Armenia,4.528694,-75.703846,10
Buenos Aires,-34.6037,-58.381503,181
Santiago,-33.469115,-70.641997,982
Buenos Aires,-34.6037,-58.381503,181
Fortul,6.792231,-71.775544,10
Vincente Lopez,-34.530423,-58.52435,1
Buenos Aires,-34.6037,-58.381503,181
Totoro,2.51379,-76.38945,8
Santiago,-33.469115,-70.641997,982
Buenos Aires,-34.6037,-58.381503,181
Chiclayo,-6.779131,-79.83942,17
Concepcion,-36.818977,-73.050319,58
Yumbo,3.583748,-76.495727,9
Yumbo,3.583748,-76.495727,9
Medellin,6.270526,-75.572173,680
Unknown,2.535935,-75.52767,5189
Lima,-12.046378,-77.042791,1802
Buenos Aires,-34.6037,-58.381503,181
Santiago,-33.469115,-70.641997,982
Santiago,-33.469115,-70.641997,982
Santiago,-33.469115,-70.641997,982
Lima,-12.046378,-77.042791,1802
Bogota,4.5981,-74.07603,605
Buenos Aires,-34.6037,-58.381503,181
Santiago,-33.469115,-70.641997,982
Buenos Aires,-34.6037,-58.381503,181
Santiago,-33.469115,-70.641997,982
Buenos Aires,-34.6037,-58.381503,181
Valparaiso,-33.045632,-71.620529,79
Vina del Mar,-33.024705,-71.552216,58
Santiago,-33.469115,-70.641997,982
Huancayo,-12.068306,-75.210163,155
Jauja,-11.775033,-75.500112,6
Jauja,-11.775033,-75.500112,6
Valparaiso,-33.045632,-71.620529,79
Valparaiso,-33.045632,-71.620529,79
Santiago,-33.469115,-70.641997,982
Linares,-35.847291,-71.598991,4
Valparaiso,-33.045632,-71.620529,79
Las Condes,-33.411667,-70.55,3
Vina del Mar,-33.024705,-71.552216,58
Santiago,-33.516667,-70.766667,982
Vina del Mar,-33.024705,-71.552216,58
Vina del Mar,-33.024705,-71.552216,58
Valdivia,-39.820083,-73.245395,11
Puerto Montt,-41.472903,-72.9369,1
Vina del Mar,-33.024705,-71.552216,58
Lima,-12.046378,-77.042791,1802
Lima,-12.046378,-77.042791,1802
Lima,-12.046378,-77.042791,1802
Santiago,-33.469115,-70.641997,982
Santiago,-33.469115,-70.641997,982
Santiago,-33.469115,-70.641997,982
Santiago,-33.469115,-70.641997,982
Bogota,4.5981,-74.07603,605
Bogota,4.5981,-74.07603,605
Buenos Aires,-34.6037,-58.381503,181
Santiago,-33.469115,-70.641997,982
Bogota,4.5981,-74.07603,605
Bogota,4.5981,-74.07603,605
Bogota,4.5981,-74.07603,605
Bogota,4.5981,-74.07603,605
Bogota,4.5981,-74.07603,605
Bogota,4.5981,-74.07603,605
Bogota,4.5981,-74.07603,605
Bogota,4.5981,-74.07603,605
Pueblo Bello,10.416624,-73.583511,2
Lima,-12.046378,-77.042791,1802
Lima,-12.046378,-77.042791,1802
Bogota,4.5981,-74.07603,605
Bogota,4.5981,-74.07603,605
Lima,-12.046378,-77.042791,1802
Santiago,-33.469115,-70.641997,982
Loma Amarilla,2.715833,-76.440833,1
Jambalo,2.85,-76.316667,10
Taipuma,-16.466667,-69.916667,3
Huanta,-12.939782,-74.247478,30
Medellin,6.270526,-75.572173,680
Medellin,6.270526,-75.572173,680
Lima,-12.046378,-77.042791,1802
Santiago,-33.469115,-70.641997,982
Santiago,-33.469115,-70.641997,982
Santiago,-33.469115,-70.641997,982
Bogota,4.5981,-74.07603,605
Bogota,4.5981,-74.07603,605
Bogota,4.5981,-74.07603,605
Lucanamarca,-13.843593,-74.37256,1
Santiago,-33.469115,-70.641997,982
Santiago,-33.469115,-70.641997,982
Santiago,-33.494536,-70.651421,982
Vilcashuaman,-13.65311,-73.95396,11
Lima,-12.046378,-77.042791,1802
Santiago,-33.469115,-70.641997,982
Santiago,-33.469115,-70.641997,982
Santiago,-33.469115,-70.641997,982
Chupascunca,-11.0575,-76.818889,1
Santiago,-33.469115,-70.641997,982
Santiago,-33.469115,-70.641997,982
Urrao,6.31609,-76.13397,5
Mutata,7.243889,-76.435556,5
Urrao,6.31609,-76.13397,5
Bogota,4.5981,-74.07603,605
Santiago,-33.469115,-70.641997,982
Santiago,-33.469115,-70.641997,982
Parana,-31.74126,-60.511264,5
Santiago,-33.469115,-70.641997,982
Hormiga,3.72857,-69.55075,2
Lima,-12.046378,-77.042791,1802
Ayacucho,-13.163874,-74.223564,233
Santiago,-33.469115,-70.641997,982
Santiago,-33.469115,-70.641997,982
Santiago,-33.469115,-70.641997,982
Santiago,-33.469115,-70.641997,982
Santiago,-33.469115,-70.641997,982
Santiago,-33.469115,-70.641997,982
Concepcion,-36.818977,-73.050319,58
Concepcion,-36.818977,-73.050319,58
Santiago,-33.469115,-70.641997,982
Santiago,-33.469115,-70.641997,982
Valparaiso,-33.045632,-71.620529,79
Concepcion,-36.818977,-73.050319,58
Talcahuano,-36.724358,-73.112741,13
Talcahuano,-36.724358,-73.112741,13
Lima,-12.046378,-77.042791,1802
Caramanta,5.548323,-75.6441,4
Lima,-12.046378,-77.042791,1802
Tingo Maria,-9.297478,-75.996312,25
Santiago,-33.469115,-70.641997,982
Santiago,-33.469115,-70.641997,982
Santiago,-33.469115,-70.641997,982
Lima,-12.07345,-77.01629,1802
San Juan de Arama,3.372457,-73.873772,3
Santiago,-33.469115,-70.641997,982
Uraba,6.828333,-75.513056,30
Cali,3.420628,-76.522119,241
El Beque,9.310406,-75.451347,1
Bogota,4.5981,-74.07603,605
Unknown,5.252803,-76.825965,5189
Cali,3.420628,-76.522119,241
Turbo,8.09242,-76.72738,22
Ayacucho,-13.163874,-74.223564,233
Turbo,8.09242,-76.72738,22
Valparaiso,-33.045632,-71.620529,79
Quillota,-32.880343,-71.249812,2
Santiago,-33.469115,-70.641997,982
Santiago,-33.469115,-70.641997,982
Santiago,-33.469115,-70.641997,982
Santiago,-33.469115,-70.641997,982
Santiago,-33.469115,-70.641997,982
Santiago,-33.469115,-70.641997,982
Santiago,-33.469115,-70.641997,982
Zaragoza,7.491752,-74.868183,32
Cali,3.420628,-76.522119,241
Valparaiso,-33.045632,-71.620529,79
Santiago,-33.469115,-70.641997,982
Santiago,-33.469115,-70.641997,982
Bogota,4.5981,-74.07603,605
Bogota,4.5981,-74.07603,605
Bogota,4.5981,-74.07603,605
Santiago,-33.469115,-70.641997,982
Santiago,-33.469115,-70.641997,982
Galeras,9.160896,-75.047881,1
Acobamba,-12.841951,-74.571139,3
Paez district,10.233173,-65.927414,3
Oru,8.638953,-72.918372,4
Concepcion,6.395033,-75.259437,58
Santiago,-33.469115,-70.641997,982
Santiago,-33.469115,-70.641997,982
Ocros,-10.403488,-77.396721,4
Tocache,-9.929845,-76.243265,9
Bogota,4.616944,-74.19,605
Puente Alto,-33.616667,-70.566667,2
Aguachica,8.30909,-73.617371,14
Aguachica,8.30909,-73.617371,14
Santiago,-33.469115,-70.641997,982
Santiago,-33.469115,-70.641997,982
Turbo,8.09242,-76.72738,22
Nuevo Antiquia,6.09475,-69.39188,1
Chiclayo,-6.776597,-79.844298,17
Lima,-12.046378,-77.042791,1802
Lima,-12.046378,-77.042791,1802
Lima,-12.046378,-77.042791,1802
Lima,-12.046378,-77.042791,1802
Lima,-12.046378,-77.042791,1802
Cordoba,-31.399301,-64.182129,28
La Plata,-34.921295,-57.954333,9
Lima,-12.046378,-77.042791,1802
Lima,-12.046378,-77.042791,1802
Laredo,-8.091779,-78.961437,4
Lima,-12.046378,-77.042791,1802
Lima,-12.046378,-77.042791,1802
Callao,-12.050934,-77.126044,35
Lima,-12.046378,-77.042791,1802
Lima,-12.046378,-77.042791,1802
Lima,-12.046378,-77.042791,1802
Lima,-12.046378,-77.042791,1802
Lima,-12.046378,-77.042791,1802
Lima,-12.046378,-77.042791,1802
Lima,-12.046378,-77.042791,1802
Lima,-12.046378,-77.042791,1802
Planeta Rica,8.408869,-75.581913,2
Chaclacayo,-11.975814,-76.7699,4
Ayacucho,-13.163874,-74.223564,233
Pacllon,-10.234498,-77.071582,1
Ongoy,-13.4029,-73.669606,1
Huayllay,-11.002306,-76.364657,6
Osaka,34.693738,135.502165,8
Tokyo,35.685826,139.756684,109
Tokyo,35.685826,139.756684,109
Narita,35.776608,140.318781,8
Narita,35.776608,140.318781,8
Narita,35.776608,140.318781,8
Ota,35.561257,139.716051,4
Narita,35.776608,140.318781,8
Tomisato,35.726808,140.343058,1
Tokyo,35.685826,139.756684,109
Tabina,7.466934,123.408319,1
Lagonglong,8.807483,124.790124,3
Unknown,8.421877,125.839596,5189
Unknown,8.421877,125.839596,5189
Manila,14.596051,120.978666,387
Zamboanga City,6.908868,122.0772,115
Manila,14.596051,120.978666,387
Banyuwangi,-8.218116,114.367304,1
Singapore,1.27986,103.848989,6
Bacolod,10.66925,122.949054,9
Manila,14.596051,120.978666,387
Lianga,8.633052,126.095835,3
Iligan,8.240043,124.244766,26
Lugait,8.342063,124.259395,2
Unknown,8.487969,124.650082,5189
Balingasag,8.744024,124.776528,4
Balingasag,8.744024,124.776528,4
Lupon,6.895545,126.013997,4
Polanco,8.531386,123.364368,2
Adams,18.465387,120.900653,1
Isabela,6.704339,121.969328,38
Butuan,8.948247,125.541107,14
Cebu City,10.294671,123.899858,18
Cebu City,10.294671,123.899858,18
Quezon City,14.677301,121.044348,46
Conner,17.795745,121.322798,3
Sanchez Mira,18.56163,121.23189,4
Butuan,8.948247,125.541107,14
Butuan,8.948247,125.541107,14
Unknown,14.679084,120.539549,5189
Unknown,14.679084,120.539549,5189
Unknown,14.679084,120.539549,5189
Unknown,14.679084,120.539549,5189
Unknown,14.679084,120.539549,5189
Unknown,14.679084,120.539549,5189
Unknown,14.679084,120.539549,5189
Unknown,14.679084,120.539549,5189
Unknown,14.679084,120.539549,5189
Unknown,14.679084,120.539549,5189
Unknown,14.679084,120.539549,5189
Unknown,14.679084,120.539549,5189
Unknown,14.679084,120.539549,5189
Nagbalayong,14.63029,120.31427,1
Cebu City,10.294671,123.899858,18
Unknown,8.421877,125.839596,5189
Unknown,6.750046,125.35626,5189
Bankok,13.723419,100.476232,1
Unknown,14.679084,120.539549,5189
Unknown,14.679084,120.539549,5189
Unknown,14.679084,120.539549,5189
Unknown,14.679084,120.539549,5189
Unknown,14.679084,120.539549,5189
Unknown,14.679084,120.539549,5189
Unknown,14.679084,120.539549,5189
Unknown,14.679084,120.539549,5189
Unknown,14.679084,120.539549,5189
Unknown,14.679084,120.539549,5189
Unknown,14.679084,120.539549,5189
Unknown,14.679084,120.539549,5189
Unknown,14.679084,120.539549,5189
Unknown,14.679084,120.539549,5189
Unknown,14.679084,120.539549,5189
Unknown,14.679084,120.539549,5189
Unknown,14.679084,120.539549,5189
Unknown,14.679084,120.539549,5189
Unknown,14.679084,120.539549,5189
Unknown,14.679084,120.539549,5189
Unknown,14.679084,120.539549,5189
Unknown,14.679084,120.539549,5189
Unknown,14.679084,120.539549,5189
Unknown,14.679084,120.539549,5189
Unknown,14.679084,120.539549,5189
Unknown,14.679084,120.539549,5189
Unknown,14.679084,120.539549,5189
Dipolog,8.584974,123.342845,6
Jolo,6.052979,121.002479,59
Davao City,7.074044,125.616549,81
Davao City,7.074044,125.616549,81
Jolo,6.052979,121.002479,59
Manila,14.596051,120.978666,387
Polanco,8.531386,123.364368,2
Cagayan de Oro,8.482536,124.647404,13
Tandag,9.079628,126.19874,1
Calinog,11.119894,122.570625,3
Balbalan,17.450867,121.149987,2
Bunguiao,7.104767,122.195979,1
Baguio,16.41639,120.59306,11
Unknown,17.412622,121.444182,5189
Solsona,18.093736,120.76993,2
General Santos,6.118078,125.172684,32
Himamaylan,10.099319,122.870788,2
Bangued,17.597189,120.619667,7
Munai,7.975419,124.064405,1
Bocaue,14.799401,120.926037,1
Angeles,15.153002,120.591942,25
Manapla,10.95803,123.123,1
Tukuran,7.85297,123.574822,1
Jaffna,9.66123,80.02558,148
Mallakam,9.762422,80.028899,3
Chavakachcheri,9.659069,80.131693,9
Jaffna,9.66123,80.02558,148
Jaffna,9.66123,80.02558,148
Jaffna,9.66123,80.02558,148
Jaffna,9.66123,80.02558,148
Jaffna,9.66123,80.02558,148
Jaffna,9.66123,80.02558,148
Jaffna,9.66123,80.02558,148
Jaffna,9.66123,80.02558,148
Kilinochchi,9.380289,80.377,21
Batticaloa,7.716666,81.700188,155
Kalawanchikudi,7.529372,81.794609,15
Bathinda district,30.210994,74.945475,1
Unknown,23.940848,91.988153,5189
Puthukkudiyiruppu,9.319927,80.696421,6
Kilinochchi,9.380289,80.377,21
Chandigarh,30.733315,76.779418,36
Chandigarh,30.733315,76.779418,36
Murunkan,8.834273,80.051047,9
Vavuniya,8.738157,80.477147,94
Unknown,7.785305,81.427899,5189
Chandigarh,30.733315,76.779418,36
Colombo,6.927079,79.861243,280
Jaffna,9.66123,80.02558,148
Jaffna,9.66123,80.02558,148
Mannar,8.980118,79.912462,28
Eravur,7.775413,81.606247,18
Colombo,6.927079,79.861243,280
Jaffna,9.66123,80.02558,148
Mutur,8.457907,81.268402,28
Dhariwal,31.958504,75.323245,3
Bhatinda,30.210994,74.945474,11
Unknown,26.846709,80.946159,5189
Hisar,29.149187,75.721653,1
Chandigarh,30.733315,76.779418,36
New Delhi,28.632381,77.220004,121
Anuradhapura,8.345185,80.388133,22
Wilpattu,8.410556,80.051111,3
Nochchiyagama,8.262724,80.208254,1
Manampitiya,7.904048,81.11547,1
Kiran,7.86778,81.510266,9
Dehiwala,6.855948,79.862968,11
Neelapola,8.371111,81.229722,1
Seruwawila,8.370811,81.319312,4
Trincomalee district,8.5922,81.196796,32
Pankulam,8.62513,81.03268,2
Hoshiapur,31.534899,75.910571,6
Gurdaspur,32.040763,75.401886,10
Trincomalee,8.5922,81.196796,130
Trincomalee,8.5922,81.196796,130
Dehiwala,6.855948,79.862968,11
Dehiwala,6.855948,79.862968,11
Omantai,8.872387,80.507724,6
Kathmandu,27.718332,85.325337,104
Kathmandu,27.718332,85.325337,104
Kathmandu,27.718332,85.325337,104
Kathmandu,27.718332,85.325337,104
Kathmandu,27.718332,85.325337,104
Dhano-ari,27.413611,85.461111,1
Bhairahawa,28.728056,80.915833,5
Bhairahawa,28.728056,80.915833,5
Meerut,28.984462,77.706414,5
Ahmedabad,23.022505,72.571362,9
Mannar District,8.980118,79.912462,18
Unknown,7.758409,80.187506,5189
Jaffna,9.66123,80.02558,148
Unknown,24.663717,93.906269,5189
Unknown,24.663717,93.906269,5189
Jaffna,9.66123,80.02558,148
Jaffna,9.66123,80.02558,148
Karachi,24.893379,67.028061,2309
Lahore,31.554606,74.357158,192
Point Pedro,9.82486,80.236347,14
Trincomalee,8.5922,81.196796,130
Unknown,8.885503,80.276733,5189
Jaffna,9.66123,80.02558,148
Unknown,31.147131,75.341218,5189
Trincomalee,8.5922,81.196796,130
Somawathiya Chaitiya,8.166667,81.216667,1
Polonnaruwa district,7.939525,81.000963,12
Dhaka,23.811388,90.412106,486
Vavuniya,8.738157,80.477147,94
Aranthalawa,7.528,81.477833,4
Murunkan,8.834273,80.051047,9
Unknown,26.200605,92.937574,5189
Mannar,8.980118,79.912462,28
Sherpur,25.569805,83.794681,4
Ampara,7.301756,81.67473,19
New Delhi,28.632381,77.220004,121
Jaffna,9.66123,80.02558,148
Jaffna,9.66123,80.02558,148
Eravur,7.775413,81.606247,18
Unknown,31.147131,75.341218,5189
Thampalakamam,8.499728,81.094412,5
New Delhi,28.632381,77.220004,121
Batala,31.8186,75.2028,20
Kilinochchi,9.380289,80.377,21
Kilinochchi,9.380289,80.377,21
Kilinochchi,9.380289,80.377,21
Trincomalee,8.5922,81.196796,130
Vavuniya,8.738157,80.477147,94
Trincomalee,8.5922,81.196796,130
Unknown,31.147131,75.341218,5189
Mannar,8.980118,79.912462,28
Jaffna,9.66123,80.02558,148
Kilinochchi,9.380289,80.377,21
Vellaveli,7.503357,81.730359,3
Unknown,31.147131,75.341218,5189
Trincomalee,8.5922,81.196796,130
Mannar,8.980118,79.912462,28
Batticaloa,7.716666,81.700188,155
Colombo,6.927079,79.861243,280
Unknown,31.147131,75.341218,5189
Unknown,31.147131,75.341218,5189
Thampalakamam,8.499728,81.094412,5
Batticaloa,7.716666,81.700188,155
Unknown,31.147131,75.341218,5189
Puthukkudiyiruppu,9.319927,80.696421,6
Batticaloa,7.716666,81.700188,155
Mullaitivu,9.267091,80.814248,27
Batticaloa,7.716666,81.700188,155
Kokkilai,8.9984,80.951865,1
Jaffna,9.66123,80.02558,148
Batticaloa,7.716666,81.700188,155
Unknown,31.147131,75.341218,5189
Batticaloa,7.716666,81.700188,155
Trincomalee,8.5922,81.196796,130
Colombo,6.926997,79.863983,280
Jaffna,9.66123,80.02558,148
Colombo,6.927079,79.861243,280
Mullaitivu,9.267091,80.814248,27
mannar,8.980118,79.912462,28
Frankfurt,50.111445,8.680615,27
Azcoitia,43.178205,-2.31164,1
Heidelberg,49.4019,8.680285,5
Frankfurt,50.111445,8.680615,27
Heidelberg,49.4019,8.680285,5
Medemblik,52.767447,5.106918,1
Hohenhaus,50.989041,7.030866,1
Brussels,50.850335,4.351685,51
Brussels,50.850335,4.351685,51
Asteasu,43.195198,-2.097548,1
Stuttgart,48.777106,9.180769,10
Karlsruhe,49.008085,8.403756,4
Portugalete,43.320664,-3.020252,7
Geesthacht,53.430252,10.374086,4
Unknown,41.918891,8.737554,5189
Paris,48.856614,2.352222,162
Unknown,41.918891,8.737554,5189
Bad Harzburg,51.881458,10.562539,1
Beja,38.015624,-7.865237,8
Beja,38.015624,-7.865237,8
Beja,38.015624,-7.865237,8
Beja,38.015624,-7.865237,8
Beja,38.015624,-7.865237,8
Beja,38.015624,-7.865237,8
Beja,38.015624,-7.865237,8
Beja,38.015624,-7.865237,8
Gauting,48.066495,11.380158,1
Derrylin,54.190675,-7.562948,3
Athens,37.97918,23.716647,668
Bilbao,43.256963,-2.923441,127
Donostia-San Sebastian,43.320812,-1.984447,113
Paris,48.856614,2.352222,162
Groningen,51.93744,11.21601,3
Frankfurt,50.111445,8.680615,27
Athens,37.968521,23.692605,668
Azpeitia,43.1839,-2.265466,8
Azpeitia,43.1839,-2.265466,8
Azpeitia,43.1839,-2.265466,8
Rome,41.89052,12.494249,52
Unknown,41.918891,8.737554,5189
Armagh,54.347539,-6.656108,39
Belfast,54.597269,-5.930109,777
Madrid,40.416691,-3.700345,117
Drumsallen,54.376028,-6.759964,1
Renteria,43.311307,-1.900896,19
Lasarte,43.267454,-2.020169,7
Paris,48.856614,2.352222,162
Londonderry,54.99451,-7.319996,133
Irun,43.338233,-1.789272,19
Madrid,40.416691,-3.700345,117
Frankfurt,50.111445,8.680615,27
Newry,54.18006,-6.33393,44
Newry,54.18006,-6.33393,44
Pomeroy,54.594562,-6.931393,6
Silverhill,54.361143,-7.688884,1
Paris,48.856614,2.352222,162
Dortmund,51.512054,7.463573,8
Vitoria,42.846718,-2.671635,53
Bochum,51.482917,7.211808,3
Bordeaux,44.837789,-0.57918,4
Essen,51.457935,7.014828,5
Hamburg,53.553813,9.991586,46
Vitoria,42.846718,-2.671635,53
Lisbon,38.725299,-9.150036,25
Lisbon,38.725299,-9.150036,25
Lisbon,38.725299,-9.150036,25
Lisbon,38.725299,-9.150036,25
Lisbon,38.725299,-9.150036,25
Lisbon,38.725299,-9.150036,25
Lisbon,38.725299,-9.150036,25
Vitoria,42.846718,-2.671635,53
Nicosia,35.166738,33.36759,40
Lisbon,38.725299,-9.150036,25
Newry,54.18006,-6.33393,44
Dungannon,54.502852,-6.769568,15
Donostia-San Sebastian,43.320812,-1.984447,113
Martigny-Ville,46.102595,7.077055,1
Nicosia,35.166739,33.367591,40
Athens,37.97918,23.716647,668
Rome,41.89052,12.494249,52
Barakaldo,43.297222,-2.991667,13
Renteria,43.311307,-1.900896,19
Santurce,43.3282,-3.031509,10
Athens,37.97918,23.716647,668
Athens,37.97918,23.716647,668
Ballincollig,51.887714,-8.587194,1
Milan,45.463681,9.188171,28
Athens,37.97918,23.716647,668
Rome,41.89052,12.494249,52
Belfast,54.597269,-5.930109,777
Belfast,54.597269,-5.930109,777
Paris,48.856614,2.352222,162
Paris,48.856614,2.352222,162
Rathfriland,54.238079,-6.161199,3
Saint-Jean-de-Luz,43.388051,-1.663055,6
Lisnaskea,54.253718,-7.44106,5
Vitoria,42.846718,-2.671635,53
Nicosia,35.16674,33.367592,40
Newry,54.18006,-6.33393,44
Newry,54.18006,-6.33393,44
Athens,37.97918,23.716647,668
Enniskillen,54.346531,-7.640404,10
Iggingen,48.831294,9.878578,1
Hamburg,53.553813,9.991586,46
Athens,37.97918,23.716647,668
Aporto,40.472846,-3.644093,1
Paris,48.856614,2.352222,162
Paris,48.856614,2.352222,162
Paris,48.856614,2.352222,162
Logron,48.147655,1.262087,1
Toulouse,43.604652,1.444209,8
Pamplona,42.817988,-1.644184,47
Brussels,50.850335,4.351685,51
Brussels,50.850335,4.351685,51
Bastia,42.697422,9.450099,185
Londonderry,54.99451,-7.319996,133
Geneva,46.198392,6.142296,10
Geneva,46.198392,6.142296,10
Geneva,46.198392,6.142296,10
London,51.500152,-0.126236,155
Cologne,50.940664,6.959912,34
Galdacano,43.230556,-2.845833,7
Benidorm,38.537043,-0.129077,7
Benidorm,38.537043,-0.129077,7
Benidorm,38.537043,-0.129077,7
Brussels,50.850335,4.351685,51
Valencia,39.470239,-0.376805,28
Bilbao,43.256963,-2.923441,127
Alicante,38.34521,-0.480995,15
Alicante,38.34521,-0.480995,15
Alicante,38.34521,-0.480995,15
Beasain,43.047076,-2.204605,3
Alicante,38.34521,-0.480995,15
Alicante,38.34521,-0.480995,15
Alicante,38.34521,-0.480995,15
Unknown,43.07563,-2.223667,5189
Unknown,41.918891,8.737554,5189
Unknown,41.918891,8.737554,5189
Unknown,41.918891,8.737554,5189
Unknown,41.918891,8.737554,5189
Unknown,41.918891,8.737554,5189
Unknown,41.918891,8.737554,5189
Unknown,41.918891,8.737554,5189
Unknown,41.918891,8.737554,5189
Unknown,41.918891,8.737554,5189
Unknown,41.918891,8.737554,5189
Unknown,41.918891,8.737554,5189
Unknown,41.918891,8.737554,5189
Unknown,41.918891,8.737554,5189
Unknown,41.918891,8.737554,5189
Unknown,41.918891,8.737554,5189
Unknown,41.918891,8.737554,5189
Unknown,41.918891,8.737554,5189
Cologne,50.940664,6.959912,34
Alicante,38.34521,-0.480995,15
Leitrim,54.285466,-5.998311,2
Alicante,38.34521,-0.480995,15
Brussels,50.850335,4.351685,51
Gloria do Ribatejo,39.04222,-8.643086,1
Athens,37.942439,23.714724,668
Badbergen,52.633169,7.980559,1
Paris,48.856614,2.352222,162
Unknown,41.919593,8.737687,5189
Unknown,41.919593,8.737687,5189
Unknown,41.919593,8.737687,5189
Unknown,41.919593,8.737687,5189
Unknown,41.919593,8.737687,5189
Unknown,41.919593,8.737687,5189
Unknown,41.919593,8.737687,5189
Unknown,41.919593,8.737687,5189
Unknown,41.919593,8.737687,5189
Unknown,41.919593,8.737687,5189
Unknown,41.919593,8.737687,5189
Unknown,41.919593,8.737687,5189
Unknown,41.919593,8.737687,5189
Unknown,41.919593,8.737687,5189
Unknown,41.919593,8.737687,5189
Athens,37.97918,23.716647,668
Cestona,43.239442,-2.258113,1
Belfast,54.597269,-5.930109,777
Donostia-San Sebastian,43.320812,-1.984447,113
Arrasate,43.066466,-2.489145,9
Basauri,43.222177,-2.885668,10
Donostia-San Sebastian,43.320812,-1.984447,113
Bermeo,43.420422,-2.722158,1
Athens,37.97918,23.716647,668
Killen,54.673252,-7.627484,10
Newry,54.18006,-6.33393,44
Donostia-San Sebastian,43.320812,-1.984447,113
Bastia,42.697423,9.4501,185
Londonderry,54.99451,-7.319996,133
Londonderry,54.99451,-7.319996,133
Crossmaglen,54.077313,-6.608787,21
Zaragoza,41.656285,-0.876533,32
Las Arenas,43.325239,-3.011475,12
Luxembourg,49.611621,6.131935,7
Milfield,55.59842,-2.104567,1
Athens,37.97918,23.716647,668
Contern,49.58518,6.22752,1
Marquina,43.270604,-2.497155,1
Frankfurt,50.111445,8.680615,27
Ballynafeigh,54.57634,-5.917178,4
Geneva,46.198392,6.142296,10
Hanover,52.372068,9.735686,18
Guingamp,48.561366,-3.148352,3
Guingamp,48.561366,-3.148352,3
Guingamp,48.561366,-3.148352,3
Valencia,39.470239,-0.376805,28
Durango,43.169068,-2.632655,13
Altea,38.600316,-0.049171,1
Alicante,38.34521,-0.480995,15
Alicante,38.34521,-0.480995,15
Madrid,40.416691,-3.700345,117
Portugalete,43.320664,-3.020252,7
Madrid,40.416691,-3.700345,117
Vitoria,42.846718,-2.671635,53
Londonderry,54.99451,-7.319996,133
Belfast,54.597269,-5.930109,777
Athens,37.97918,23.716647,668
Kilrea,54.951082,-6.558998,5
Beasain,43.047076,-2.204605,3
Kinawley,54.22641,-7.649053,1
Santurce,43.3282,-3.031509,10
Santurce,43.3282,-3.031509,10
Frankfurt,50.111445,8.680615,27
Brussels,50.850335,4.351685,51
Luxembourg,49.611621,6.131935,7
Lekeitio,43.365509,-2.503344,2
Vitoria,42.846718,-2.671635,53
Lekeitio,43.365509,-2.503344,2
Bayonne,43.492949,-1.474841,15
Amurrio,43.052649,-3.001022,2
Madrid,40.416691,-3.700345,117
Unknown,41.918891,8.737554,5189
Unknown,41.918891,8.737554,5189
Unknown,41.918891,8.737554,5189
Unknown,41.918891,8.737554,5189
Unknown,41.918891,8.737554,5189
Unknown,41.918891,8.737554,5189
Unknown,41.918891,8.737554,5189
Unknown,41.918891,8.737554,5189
Unknown,41.918891,8.737554,5189
Unknown,41.918891,8.737554,5189
Unknown,41.918891,8.737554,5189
Unknown,41.918891,8.737554,5189
Unknown,41.918891,8.737554,5189
Unknown,41.918891,8.737554,5189
Rome,41.89052,12.494249,52
Rome,41.89052,12.494249,52
Athens,37.97918,23.716647,668
Madrid,40.416691,-3.700345,117
Pamplona,42.817988,-1.644184,47
Belfast,54.597269,-5.930109,777
Donostia-San Sebastian,43.320812,-1.984447,113
Azpeitia,43.1839,-2.265466,8
Bordeaux,44.837789,-0.57918,4
Mandelieu-la-Napoule,43.5166667,6.9333333,1
Cannes,43.552847,7.017369,3
Nicosia,35.166741,33.367593,40
Lisbon,38.725299,-9.150036,25
Copenhagen,55.676075,12.568316,24
Copenhagen,55.676075,12.568316,24
Lisbon,38.725299,-9.150036,25
Belfast,54.597269,-5.930109,777
Vitoria,42.846718,-2.671635,53
Madrid,40.416691,-3.700345,117
Belfast,54.597269,-5.930109,777
Benidorm,38.537043,-0.129077,7
Benidorm,38.537043,-0.129077,7
Ballynahinch,54.403903,-5.894062,5
El Grao,39.974986,0.015435,1
Madrid,40.416691,-3.700345,117
Luyando,43.102723,-2.997211,1
Salamanca,40.964968,-5.663025,3
Saint-Jean-Pied-de-Port,43.163141,-1.23811,2
Elgoibar,43.215187,-2.415702,4
Frankfurt,50.111445,8.680615,27
Wiesbaden,50.084284,8.238717,9
Bonn,50.732674,7.096299,14
Pasajes,43.32412,-1.929857,10
Pasajes,43.32412,-1.929857,10
Pasajes,43.32412,-1.929857,10
Paris,48.856614,2.352222,162
Paris,48.856614,2.352222,162
Monchengladbach,51.191261,6.442066,3
Monchengladbach,51.191261,6.442066,3
Castellon de la Plana,39.986068,-0.036024,4
Castellon de la Plana,39.986068,-0.036024,4
Belfast,54.597269,-5.930109,777
Newcastle,54.208418,-5.891745,11
Dublin,53.344104,-6.267494,22
Donostia-San Sebastian,43.320812,-1.984447,113
Luxembourg,49.611621,6.131935,7
Luxembourg,49.611621,6.131935,7
Belfast,54.597269,-5.930109,777
Crossgar,54.397786,-5.753912,2
Hamburg,53.553813,9.991586,46
Dortmund,51.512054,7.463573,8
Athens,37.97918,23.716647,668
Enniskillen,54.346531,-7.640404,10
Madrid,40.416691,-3.700345,117
Paris,48.856614,2.352222,162
Paris,48.856614,2.352222,162
Paris,48.856614,2.352222,162
Paris,48.856614,2.352222,162
Freisen,49.552402,7.248795,1
Nohfelden,49.586341,7.141407,1
Belfast,54.597269,-5.930109,777
Belfast,54.597269,-5.930109,777
Killen,54.673252,-7.627484,10
Omagh,54.600305,-7.298402,8
Vitoria,42.846718,-2.671635,53
Athens,37.97918,23.716647,668
Athens,37.97918,23.716647,668
Copenhagen,55.676075,12.568316,24
Copenhagen,55.676075,12.568316,24
Vitoria,42.846718,-2.671635,53
Rome,41.89052,12.494249,52
Athens,37.97918,23.716647,668
Londonderry,54.99451,-7.319996,133
Limburg,50.386627,8.059515,1
Vienna,48.208174,16.373819,24
Baunatal,51.251761,9.407764,1
Rome,41.89052,12.494249,52
Bayonne,43.492949,-1.474841,15
Larnaca,34.917861,33.633003,8
Bern,46.947922,7.444608,5
Amsterdam,52.370216,4.895168,20
Barcelona,41.387917,2.169919,82
Cologne,50.940664,6.959912,34
Cologne,50.940664,6.959912,34
Athens,38.038588,23.767349,668
Brussels,50.850335,4.351685,51
Basque country,42.979885,-2.628329,1
Athens,37.97918,23.716647,668
Athens,37.97918,23.716647,668
Athens,37.867803,23.756796,668
Madrid,40.416691,-3.700345,117
Strabane,54.823432,-7.468374,11
Paris,48.856614,2.352222,162
Madrid,40.416691,-3.700345,117
Charleroi,50.412431,4.443722,3
Schwabisch Gmund,48.802294,9.802725,3
Schwabisch Gmund,48.802294,9.802725,3
Paris,48.856614,2.352222,162
Paris,48.856614,2.352222,162
Dour,50.39633,3.781435,2
Rome,41.89052,12.494249,52
Athens,37.888821,23.745881,668
Paris,48.856614,2.352222,162
Londonderry,54.99451,-7.319996,133
Paris,48.856614,2.352222,162
Brussels,50.850335,4.351685,51
Paris,48.856614,2.352222,162
Rethimnon,35.366867,24.47473,1
Athens,37.97918,23.716647,668
Athens,37.97918,23.716647,668
Athens,37.97918,23.716647,668
Brussels,50.850335,4.351685,51
Charleroi,50.412431,4.443722,3
Brussels,50.850335,4.351685,51
Louvain,50.883098,4.699611,1
Nicosia,35.166742,33.367594,40
Nicosia,35.166743,33.367595,40
Lisburn,54.510893,-6.042726,28
Aalst,50.9341,4.04513,1
Luxembourg,49.611621,6.131935,7
Neustadt an der Weinstrasse,49.35027,8.137919,2
Crossmaglen,54.077313,-6.608787,21
Londonderry,54.99451,-7.319996,133
Athens,37.97918,23.716647,668
Brussels,50.850335,4.351685,51
Londonderry,54.99451,-7.319996,133
Athens,37.97918,23.716647,668
Frankfurt,50.111445,8.680615,27
Pasajes,43.32412,-1.929857,10
Donostia-San Sebastian,43.320812,-1.984447,113
Athens,37.97918,23.716647,668
Donostia-San Sebastian,43.320812,-1.984447,113
Guillerna,42.950049,-2.853817,1
Lasarte,43.267454,-2.020169,7
Vitoria,42.846718,-2.671635,53
Vitoria,42.846718,-2.671635,53
London,51.500152,-0.126236,155
Kilkeel,54.063074,-6.006978,4
Luxembourg,49.611621,6.131935,7
Belfast,54.597269,-5.930109,777
Luxembourg,49.611621,6.131935,7
Antwerp,51.219062,4.40289,5
Wortegem,50.85304,3.50797,1
Brussels,50.850335,4.351685,51
Liege,50.632557,5.579666,2
Marseilles,43.296482,5.36978,23
Versailles,48.801399,2.130109,2
Arrasate,43.066466,-2.489145,9
Paris,48.856614,2.352222,162
Paris,48.856614,2.352222,162
Ballygawley,54.462881,-7.028646,4
Valletta,35.89779,14.514106,7
Barcelona,41.387917,2.169919,82
Vienna,48.208174,16.373819,24
Castlederg,54.706718,-7.592867,11
Lisbon,38.725299,-9.150036,25
Pamplona,42.817988,-1.644184,47
Vienna,48.208174,16.373819,24
Rome,41.89052,12.494249,52
Bilbao,43.256963,-2.923441,127
Lasarte,43.267454,-2.020169,7
Bilbao,43.256963,-2.923441,127
East Berlin,52.516667,13.4,6
East Berlin,52.516667,13.4,6
East Berlin,52.516667,13.4,6
Bucharest,44.4333333,26.1,3
Berlin,52.516667,13.4,91
Jerusalem,31.766496,35.21172,291
Beirut,33.888629,35.495479,427
Beirut,33.888629,35.495479,427
Beirut,33.888763,35.492016,427
Beirut,33.888629,35.495479,427
Beirut,33.888629,35.495479,427
Beirut,33.888629,35.495479,427
Beirut,33.888629,35.495479,427
Sidon,33.562839,35.36887,100
Beirut,33.888629,35.495479,427
Beirut,33.888763,35.492016,427
Beirut,33.888629,35.495479,427
Beirut,33.888629,35.495479,427
Beirut,33.888629,35.495479,427
Sidon,33.562839,35.36887,100
Tripoli,34.438094,35.830837,428
Beirut,33.888629,35.495479,427
Beirut,33.888629,35.495479,427
Beirut,33.888629,35.495479,427
Beirut,33.888629,35.495479,427
Tyre,33.272157,35.203278,27
Tyre,33.272157,35.203278,27
Tyre,33.272157,35.203278,27
Tehran,35.696442,51.422974,73
Beirut,33.888629,35.495479,427
Tripoli,34.438094,35.830837,428
Beirut,33.888629,35.495479,427
Beirut,33.888763,35.492016,427
Bazouriye,33.254326,35.271518,1
Beirut,33.888629,35.495479,427
Beirut,33.888629,35.495479,427
Beirut,33.888629,35.495479,427
Marakah,33.273056,35.308611,1
Beirut,33.888629,35.495479,427
Dubai,25.250795,55.358096,3
Metula,33.277232,35.578235,5
Beirut,33.888629,35.495479,427
Beirut,33.888629,35.495479,427
Tehran,35.696442,51.422974,73
Beirut,33.888629,35.495479,427
Beirut,33.888629,35.495479,427
Beirut,33.888763,35.492016,427
Riyadh,24.64732,46.714581,75
Beirut,33.888629,35.495479,427
Beirut,33.888629,35.495479,427
Tripoli,34.438094,35.830837,428
Mount Lebanon,33.789033,35.480735,15
Beirut,33.888763,35.492016,427
Jezzine,33.541351,35.586215,25
Tyre,33.272157,35.203278,27
Beirut,33.888629,35.495479,427
Beirut,33.888763,35.492016,427
Hasbaya,33.397778,35.685,5
Tehran,35.696442,51.422974,73
Jerusalem,31.766496,35.21172,291
Jerusalem,31.766496,35.21172,291
Jerusalem,31.766496,35.21172,291
Beirut,33.888629,35.495479,427
Riyadh,24.64732,46.714581,75
Beirut,33.888629,35.495479,427
Sin El Fil,33.872894,35.535687,4
Beirut,33.888629,35.495479,427
Rabat,34.021185,-6.841146,5
Beirut,33.888629,35.495479,427
Beirut,33.888629,35.495479,427
Beirut,33.888629,35.495479,427
Beirut,33.888629,35.495479,427
Beirut,33.888763,35.492016,427
Tripoli,34.438094,35.830837,428
Newe Ya'aqov,31.799623,35.233066,1
Beirut,33.888763,35.492016,427
Hasbaya,33.397778,35.685,5
Haifa,32.793921,34.990615,28
Kuwait,29.365,48.001389,24
Kuwait,29.365,48.001389,24
Beirut,33.888629,35.495479,427
Rafah,31.288323,34.252164,166
Kafr Tibnit,33.353333,35.512778,4
Beirut,33.888629,35.495479,427
Ankara,39.919636,32.85664,96
Aleppo,36.212989,37.142588,177
Arnoun,33.331503,35.52586,8
Majdal Selm,33.214611,35.461758,3
Mount Lebanon,33.867394,35.490393,15
Beirut,33.892039,35.517862,427
Beirut,33.888629,35.495479,427
Mount Lebanon,33.864781,35.486409,15
Beirut,33.888629,35.495479,427
Tripoli,34.438094,35.830837,428
Tripoli,34.438094,35.830837,428
Cairo,30.05,31.25,139
Istanbul,41.010676,28.957255,715
Rimat,33.528333,35.509444,1
Jerusalem,31.766496,35.21172,291
Jezzine,33.541351,35.586215,25
Beirut,33.895746,35.533795,427
Jerusalem,31.766496,35.21172,291
Hasbaya,33.397778,35.685,5
Beirut,33.888629,35.495479,427
Baabda,33.84946,35.54936,3
Jerusalem,31.766496,35.21172,291
Jerusalem,31.766496,35.21172,291
Halhul,31.579708,35.100485,8
Beirut,33.888629,35.495479,427
Beirut,33.888629,35.495479,427
Haifa,32.793921,34.990615,28
Haifa,32.793921,34.990615,28
Haifa,32.793921,34.990615,28
Haifa,32.793921,34.990615,28
Beirut,33.888629,35.495479,427
Beirut,33.888629,35.495479,427
Alexandria,31.1980556,29.9191667,42
Tel Aviv,32.085688,34.783684,76
Beirut,33.888763,35.492016,427
Marjayoun,33.246259,35.5001,11
Afula,32.609885,35.290105,12
Beirut,33.888629,35.495479,427
Aukar,34.432778,35.916389,1
Jezzine,33.541351,35.586215,25
Tel Aviv,32.085688,34.783684,76
Ondangua,-17.905095,15.975806,1
Hwange,-18.355878,26.501998,1
Lalibela,12.030552,39.046849,1
Mamelodi,-25.72135,28.422304,13
Tembisa,-26.004123,28.21116,13
Unknown,-25.476646,30.978892,5189
Durban,-29.858343,31.021827,91
Queenstown,-31.896578,26.883187,7
Johannesburg,-26.177929,27.974858,202
Johannesburg,-26.177929,27.974858,202
Lucapa,-8.41825,20.738492,3
East Rand,-26.16972,28.345544,4
Gaborone,-24.656477,25.911255,6
Brakpan,-26.234679,28.370372,3
Brakpan,-26.234679,28.370372,3
GaRankuwa,-25.59997,27.999316,1
Johannesburg,-26.177929,27.974858,202
Johannesburg,-26.177929,27.974858,202
Tchin Tabaraden,15.898,5.803,1
Johannesburg,-26.177929,27.974858,202
Kampala,0.350848,32.580224,40
Johannesburg,-26.177929,27.974858,202
Johannesburg,-26.177929,27.974858,202
Umlazi,-29.965819,30.882976,30
Durban,-29.858343,31.021827,91
Johannesburg,-26.177929,27.974858,202
Umtata,-31.601602,28.777502,6
Lamontville,-29.941403,30.939766,4
Huambo,-12.765538,15.732861,24
South Beach,-29.859038,31.036147,1
East London,-32.985771,27.866086,13
Amalinda,-32.991891,27.869238,1
Durban,-29.858343,31.021827,91
Magamaga,0.521242,33.347212,1
Durban,-29.858343,31.021827,91
Johannesburg,-26.177929,27.974858,202
Maputo,-25.891968,32.605135,40
Tsakane,-26.348601,28.364694,3
Umtata,-31.601602,28.777502,6
Umtata,-31.601602,28.777502,6
Ogandjera,-17.916604,15.093787,1
Kwathema,-26.286807,28.400863,7
Kwathema,-26.286807,28.400863,7
Port Elizabeth,-33.9585,25.600682,10
Eenhana,-17.483762,16.329004,1
Soweto,-26.246319,27.853677,122
Lusaka,-15.415393,28.284354,22
Unknown,-32.849062,27.438238,5189
Veeplaas,-33.866709,25.566106,1
Bongweni,-34.016521,18.634634,1
Durban,-29.858343,31.021827,91
Soweto,-26.246319,27.853677,122
Umlazi,-29.965819,30.882976,30
East London,-32.985771,27.866086,13
Umlazi,-29.965819,30.882976,30
East London,-32.985771,27.866086,13
Mount Ruth,-32.922194,27.758155,1
Unknown,-32.842552,27.442833,5189
Durban,-29.858343,31.021827,91
Luabo,-18.400385,36.102863,2
Windhoek,-22.567335,17.083271,18
Cape Town,-33.925313,18.426329,78
Durban,-29.858343,31.021827,91
Umlazi,-29.965819,30.882976,30
Maputo,-25.891968,32.605135,40
Maputo,-25.891968,32.605135,40
Durban,-29.858343,31.021827,91
Uitenhage,-33.766723,25.400528,3
Mamelodi,-25.72135,28.422304,13
Cape Town,-33.925313,18.426329,78
Mamelodi,-25.72135,28.422304,13
Port Elizabeth,-33.9585,25.600682,10
Unknown,-17.819342,23.953647,5189
Cape Town,-33.925313,18.426329,78
Durban,-29.858343,31.021827,91
Johannesburg,-26.177929,27.974858,202
Kampala,0.350848,32.580224,40
Ruacana,-17.434817,14.390949,1
Cape Town,-33.925313,18.426329,78
Cape Town,-33.925313,18.426329,78
Johannesburg,-26.177929,27.974858,202
Cape Town,-33.925313,18.426329,78
Cape Town,-33.925313,18.426329,78
Manenberg,-33.981614,18.550276,1
Soutpansberg,-23.00124,29.768678,4
Johannesburg,-26.177929,27.974858,202
Woodstock,-33.924771,18.446001,2
Unknown,-25.840061,25.593217,5189
Soutpansberg,-23.00124,29.768678,4
Soutpansberg,-23.00124,29.768678,4
Soutpansberg,-23.00124,29.768678,4
Lome,6.172553,1.231572,25
Lome,6.172553,1.231572,25
Soweto,-26.246319,27.853677,122
Durban,-29.858343,31.021827,91
Chesterville,-29.851017,30.944176,1
Songo,-15.601136,32.75211,1
Messina,-22.351154,30.039773,10
Messina,-22.351154,30.039773,10
Chiawelo,-26.282049,27.857598,1
Messina,-22.351154,30.039773,10
Messina,-22.351154,30.039773,10
Chatsworth,-29.912078,30.884443,2
Durban,-29.858343,31.021827,91
Umlazi,-29.965819,30.882976,30
Komatipoort,-25.433974,31.952572,2
Weipe,-22.191692,29.500886,2
Okahao,-17.88419,15.06343,1
Messina,-22.351154,30.039773,10
Amanzimtoti,-30.050385,30.881266,5
Amanzimtoti,-30.050385,30.881266,5
Lenasia,-26.31468,27.828306,5
Lenasia,-26.31468,27.828306,5
Huambo,-12.765538,15.732861,24
Amanzimtoti,-30.050385,30.881266,5
Noumea,-22.2758,166.458,12
Noumea,-22.2758,166.458,12
Thio,-21.6068,166.214596,1
Noumea,-22.2758,166.458,12
Noumea,-22.2758,166.458,12
Noumea,-22.2758,166.458,12
Noumea,-22.2758,166.458,12
Guanica,17.97255,-66.908524,1
Cidra,18.175791,-66.161278,1
San Juan,18.46617,-66.106654,27
Hayden Lake,47.765793,-116.757971,1
Rio Piedras,18.402807,-66.050137,4
New York City,40.712784,-74.005941,43
San Juan,18.46617,-66.106654,27
Palo Verde,33.34835,-112.677484,1
Guadalajara,20.673343,-103.344177,7
Toledo,41.65381,-83.536259,21
Vancouver,49.25,-123.1333333,2
Wichita,37.68698,-97.335579,2
Manchester,38.59286,-90.510679,17
Chicago,41.88415,-87.632409,7
Hayden,47.744503,-116.792062,1
Markham,43.8561,-79.337019,1
New York City,40.712784,-74.005941,43
Coeur D'Alene,47.677755,-116.776166,4
Toa Baja,18.44247,-66.253529,1
Coeur D'Alene,47.677755,-116.780419,4
Coeur D'Alene,47.677755,-116.780419,4
Coeur D'Alene,47.677755,-116.780419,4
New York City,40.712784,-74.005941,43
Detroit,42.331685,-83.047924,2
Fajardo,18.325816,-65.65239,1
San Juan,18.46617,-66.106654,27
New York City,40.78306,-73.971249,43
Rockford,42.271817,-89.094544,4
Unknown,43.006844,-75.047006,5189
Rockford,42.271817,-89.094544,4
New York City,40.712784,-74.005941,43
Kalamazoo,42.291957,-85.587437,4
Rockford,42.271817,-89.094544,4
Yauco,18.03496,-66.849844,2
El Porton,11.76667,-86.35,1
Santa Maria,13.746389,-86.709722,7
Cerro Chichipi,13.38478,-85.84598,1
San Jose de Bocay,14.15291569,-85.07312012,10
Juayua,13.8413889,-89.7455556,2
Providencia,11.8852,-86.19886,2
El Chapernal,13.270556,-86.254444,1
Nueva Guinea,11.70162226,-84.33058167,8
Murra,13.759041,-86.017217,3
Cano Poncaya,13.05485,-84.53188,1
Condega,13.360614,-86.398154,6
Condega,13.360614,-86.398154,6
Esteli,13.13192319,-86.34574228,11
Cerro de Guazapa,13.967553,-89.139633,3
Esteli,13.13192319,-86.34574228,11
Esteli,13.13192319,-86.34574228,11
Santiago de Maria,13.4833333,-88.4666667,31
Santiago de Maria,13.4833333,-88.4666667,31
Santiago de Maria,13.4833333,-88.4666667,31
Santiago de Maria,13.4833333,-88.4666667,31
Santiago de Maria,13.4833333,-88.4666667,31
Santiago de Maria,13.4833333,-88.4666667,31
Santiago de Maria,13.4833333,-88.4666667,31
Santiago de Maria,13.4833333,-88.4666667,31
Santiago de Maria,13.4833333,-88.4666667,31
Santiago de Maria,13.4833333,-88.4666667,31
Santiago de Maria,13.4833333,-88.4666667,31
Santiago de Maria,13.4833333,-88.4666667,31
Santiago de Maria,13.4833333,-88.4666667,31
Santiago de Maria,13.4833333,-88.4666667,31
Santiago de Maria,13.4833333,-88.4666667,31
Santiago de Maria,13.4833333,-88.4666667,31
Santiago de Maria,13.4833333,-88.4666667,31
Santiago de Maria,13.4833333,-88.4666667,31
Santiago de Maria,13.4833333,-88.4666667,31
Santiago de Maria,13.4833333,-88.4666667,31
Guatemala City,14.624422,-90.53288,247
San Pedro de Lovago,12.133803,-85.087631,3
Cerro Campana,12.25,-84.733333,1
Cerro Wawasang,12.533333,-84.166667,1
Loma Wasmuk,12.69845,-84.54417,1
La Trinidad,12.96589,-86.231407,5
Las Delicias,12.984322,-86.963095,4
San Salvador,13.69288,-89.199161,529
Wayawas,14.36548,-85.19564,2
San Jose de Bocay,14.15291569,-85.07312012,10
Yaxchilan,17.097502,-90.778337,1
Unknown,13.7682,-88.129139,5189
Rama,12.29344498,-84.41114474,13
Chuatuj,15.433333,-91.233333,1
Apopa,13.79833,-89.17889,32
Apopa,13.79833,-89.17889,32
Apopa,13.79833,-89.17889,32
Apopa,13.79833,-89.17889,32
San Miguel,13.466667,-88.183333,65
San Salvador,13.69288,-89.199161,529
San Gerardo,13.808486,-88.409066,5
Camoapa,12.382409,-85.51372,4
Tenancingo,13.83553,-88.985462,5
San Ramon,13.682638,-88.926466,16
San Ramon,13.682638,-88.926466,16
San Ramon,13.682638,-88.926466,16
San Ramon,13.682638,-88.926466,16
San Ramon,13.682638,-88.926466,16
San Ramon,13.682638,-88.926466,16
San Ramon,13.682638,-88.926466,16
San Ramon,13.682638,-88.926466,16
San Ramon,13.682638,-88.926466,16
San Ramon,13.682638,-88.926466,16
San Ramon,13.682638,-88.926466,16
San Ramon,13.682638,-88.926466,16
Santa Cruz Paraiso,13.45,-88.7833333,2
Santa Cruz Paraiso,13.45,-88.7833333,2
Zacatecoluca,13.5,-88.8666667,15
Zacatecoluca,13.5,-88.8666667,15
Zacatecoluca,13.5,-88.8666667,15
Zacatecoluca,13.5,-88.8666667,15
Zacatecoluca,13.5,-88.8666667,15
Santa Ana,13.99417,-89.55972,40
Amayo,13.56667,-88.88333,1
El Naranjo,17.231048,-90.806787,3
Unknown,16.912033,-90.299578,5189
Texistepeque,14.125746,-89.495479,2
Texistepeque,14.125746,-89.495479,2
Jalapa,13.922245,-86.125393,2
Unknown,13.78944,-86.012157,5189
Unknown,13.78944,-86.012157,5189
Unknown,13.78944,-86.012157,5189
Unknown,13.78944,-86.012157,5189
Unknown,13.78944,-86.012157,5189
Unknown,13.78944,-86.012157,5189
Santa Clara,13.7067,-86.25782,11
Somotillo,13.041707,-86.905374,7
Wiwili,13.62679,-85.8254,19
San Salvador,13.69288,-89.199161,529
San Salvador,13.69288,-89.199161,529
San Salvador,13.69288,-89.199161,529
San Salvador,13.69288,-89.199161,529
Panama City,8.994269,-79.518792,49
Panama City,8.994269,-79.518792,49
Panama City,8.994269,-79.518792,49
San Salvador,13.69288,-89.199161,529
El Caribe,16.477743,-90.456422,1
Yalaguina,13.48375,-86.49297,1
Malacatan,14.91157,-92.054893,2
Kukra Hill,12.242438,-83.747802,1
Santa Clara,13.7067,-86.25782,11
Teotecacinte,14.05,-86.06667,1
San Pedro del Norte,13.27624,-86.87844,3
La Pinuela,11.6002,-86.211617,3
Loma Azul,13.33159,-86.05496,1
San Sebastian de Yali,13.304902,-86.186265,8
San Rafael del Norte,13.212326,-86.110558,5
Arambala,13.9166667,-88.1333333,3
Joateca,13.89271,-88.043983,4
Tejutla,14.169631,-89.102686,15
Torola,13.9166667,-88.2333333,6
Jocoaitique,13.90668,-88.157021,3
Jinotega,13.09171,-86.00177,28
Waspam,14.74189,-83.9717,2
Quezaltepeque,13.835,-89.2744444,17
Unknown,13.681766,-89.36063,5189
San Pedro del Norte,13.27624,-86.87844,3
El Tuma,13.066522,-85.749967,1
Rio Bulbul,12.77301,-85.47223,1
Buenos Aires,12.05,-84.26667,181
San Jose de Bocay,13.54204,-85.53942,10
Matiguas,12.83543,-85.462486,5
Soyapango,13.701964,-89.147774,14
Sesori,13.719546,-88.360633,7
Wasla,14.79993,-83.7421,1
Sinsin,14.266667,-83.55,1
San Bartolome Perulapia,13.763295,-89.047796,6
San Bartolome Perulapia,13.763295,-89.047796,6
San Bartolome Perulapia,13.763295,-89.047796,6
Tecoluca,13.536835,-88.780584,8
San Jose,9.933333,-84.083333,31
Usulutan,13.344322,-88.437463,34
Usulutan,13.344322,-88.437463,34
Usulutan,13.344322,-88.437463,34
Usulutan,13.344322,-88.437463,34
Usulutan,13.344322,-88.437463,34
Usulutan,13.344322,-88.437463,34
Usulutan,13.344322,-88.437463,34
Usulutan,13.344322,-88.437463,34
Jinotega,13.09171,-86.00177,28
Usulutan,13.344322,-88.437463,34
Unknown,13.488644,-87.894245,5189
San Andres,16.9675,-89.910278,8
El Salto,11.87401,-86.413,2
San Salvador,13.69288,-89.199161,529
El Salto,11.87401,-86.413,2
San Rafael Cedros,13.7333333,-88.8833333,23
San Rafael Cedros,13.7333333,-88.8833333,23
San Rafael Cedros,13.7333333,-88.8833333,23
San Rafael Cedros,13.7333333,-88.8833333,23
San Rafael Cedros,13.7333333,-88.8833333,23
Nuevo Eden de san Juan,13.824224,-88.485189,2
Tecoluca,13.536835,-88.780584,8
Berlin,13.49446,-88.530343,91
Metapan,14.331414,-89.442393,5
La Vigia,13.496103,-85.916342,2
Jinotega,13.13070671,-85.9716835,28
San Bartolome Perulapia,13.763295,-89.047796,6
San Vicente,13.64121,-88.785423,37
La Palma,14.316514,-89.171394,9
Anguiatu,14.411253,-89.433434,2
San Salvador,13.69288,-89.199161,529
San Jose Guayabal,13.84222,-89.09694,15
Jinotega,13.09171,-86.00177,28
"Cebollal, El",13.087135,-86.355572,3
"Cebollal, El",13.087135,-86.355572,3
"Cebollal, El",13.087135,-86.355572,3
Santa Elena,16.914726,-89.866136,10
Corinto,13.818333,-87.9713889,18
Tejutepeque,13.85077,-88.90406,10
Jutiapa,13.888888,-88.901631,7
Guatemala City,14.624422,-90.53288,247
Santa Ines Petapa,14.483333,-90.533333,1
Esteli,13.13192319,-86.34574228,11
San Salvador,13.69288,-89.199161,529
San Isidro,12.9319444,-86.1952778,24
El Ojoche,11.51954,-84.786078,1
Tejutepeque,13.85077,-88.90406,10
Tajamulco,15.081505,-91.891609,1
San Francisco,16.8,-89.933333,11
Flores,16.929696,-89.891681,1
San Miguel,13.466667,-88.183333,65
San Miguel,13.466667,-88.183333,65
San Miguel,13.466667,-88.183333,65
San Miguel,13.466667,-88.183333,65
La Pinuela,11.6002,-86.211617,3
Santa Tecla,13.6769444,-89.2797222,21
David,8.427805,-82.430643,4
Las Crucitas,11.85821,-86.11343,2
San Ramon,13.682638,-88.926466,16
Nueva Concepcion,14.12458,-89.293171,8
El Mozote,13.9,-88.1166667,3
El Mozote,13.9,-88.1166667,3
Chorrera,12.749831,-87.283507,1
Las Crucitas,11.85821,-86.11343,2
Murra,13.759041,-86.017217,3
Tiquisate,14.283333,-91.366667,2
Dakban,14.05,-83.516667,1
Cano Negro,10.892093,-84.78599,2
Jalapa,13.922245,-86.125393,2
Asturias,13.243611,-85.89596,7
El Juleque,16.9,-89.766667,1
San Salvador,13.69288,-89.199161,529
Los Filos,14.080938,-88.708684,1
La Lucha,16.809726,-90.768243,1
Soyapango,13.701964,-89.147774,14
La Laguna,14.070743,-88.905453,7
Concepcion Quetzaltepeque,14.088915,-88.957833,6
Nueva Esparta,13.784841,-87.835564,3
Tegucigalpa,14.0833,-87.2167,80
Tejutla,14.169631,-89.102686,15
Puerto Cabezas,14.23373675,-83.53885928,7
Ateos,13.7333333,-89.4333333,2
Wiwili,13.62679,-85.8254,19
Quilali,13.564251,-86.02984,21
Tegucigalpa,14.0833,-87.2167,80
San Bartolome Perulapia,13.763295,-89.047796,6
Nejapa,13.808917,-89.228637,18
Unknown,14.372734,-91.753882,5189
Wiwili,13.62679,-85.8254,19
El Guapinol,12.71321,-86.511845,3
San Blas,12.2166667,-84.0333333,1
Cololaca,14.30645,-88.880188,1
Valladolid,14.154909,-88.735414,4
Tambla,14.216906,-88.784864,1
Santo Domingo,12.265244,-85.08308,42
El Capulin,13.28444,-88.12639,1
El Corral,13.8,-89.9166667,1
Guatemala City,14.624422,-90.53288,247
El Mozote,13.9,-88.1166667,3
Apopa,13.79833,-89.17889,32
San Nicolas Lempa,13.4333333,-88.7,2
El Cuco,13.175928,-88.110224,1
La Gateada,11.999035,-84.779857,4
Las Minas,12.80111,-86.00833,2
Puerto Cabezas,14.23373675,-83.53885928,7
Guatemala City,14.624422,-90.53288,247
Santa Clara,13.7067,-86.25782,11
Brown Bank,12.447235,-83.734378,1
Asturias,13.243611,-85.89596,7
San Juan del Rio Coco,13.544303,-86.165168,5
Muelle de los Bueyes,12.069311,-84.539748,6
Asturias,13.13070671,-85.9716835,7
Ayapal,13.776949,-85.407863,1
Bocaycito,13.434893,-85.621638,2
Villa Sandino,12.0483,-84.99362,2
Quilali,13.564251,-86.02984,21
Acoyapa,11.9666667,-85.1666667,6
Santo Tomas,12.068668,-85.091877,7
Cano Blanco,11.68588,-84.61369,1
Cano El Perro,13.01921,-84.73632,1
Boca del Toro,14.40704,-83.87698,1
Las Minitas,12.83333,-85.38333,1
El Trapiche,12.3089,-86.78852,1
El Almendro,11.676334,-84.702872,3
La Pinuela,11.6002,-86.211617,3
Ciudad Barrios,13.7666667,-88.2666667,17
Ciudad Barrios,13.7666667,-88.2666667,17
Agua Fria,12.77074,-86.28627,1
Bocana de Paiwas,12.800014,-85.133347,5
El Almendro,11.676334,-84.702872,3
Asturias,13.13070671,-85.9716835,7
Yaruca,15.602481,-86.657988,1
Juigalpa,12.09575539,-85.38705956,6
Wiwili,13.62679,-85.8254,19
Wiwili,13.62679,-85.8254,19
Wiwili,13.62679,-85.8254,19
Cotzol,15.506667,-91.177222,1
Bilampi,12.9333333,-85.0333333,3
Unknown,12.492724,-85.520024,5189
San Salvador,13.69288,-89.199161,529
Unknown,11.727473,-86.21585,5189
Comalpa,12.282033,-85.512208,3
El Limon,13.841425,-86.193928,4
La Herradura,13.35,-88.95,1
San Juan de Murra,13.7585,-86.01843,1
La Union,13.52628,-84.89873,15
Unknown,12.492724,-85.520024,5189
Santiago de Maria,13.4833333,-88.4666667,31
Comalpa,12.282033,-85.512208,3
Cerro Colorado,13.164976,-86.81632,1
Pantasma,13.196432,-85.826866,6
Wanblan,13.85738,-85.73339,2
Patzun,14.677811,-91.016696,1
Jucuapa,13.5166667,-88.3833333,23
Jucuapa,13.5166667,-88.3833333,23
Jucuapa,13.5166667,-88.3833333,23
Jucuapa,13.5166667,-88.3833333,23
Jucuapa,13.5166667,-88.3833333,23
Jucuapa,13.5166667,-88.3833333,23
Jucuapa,13.5166667,-88.3833333,23
Jucuapa,13.5166667,-88.3833333,23
Jucuapa,13.5166667,-88.3833333,23
Jucuapa,13.5166667,-88.3833333,23
El Triunfo,13.558889,-88.43,11
El Triunfo,13.558889,-88.43,11
El Nispero,11.67915,-86.146136,5
San Isidro,13.8333333,-88.7166667,24
Guatajiagua,13.6667,-88.208264,4
Kingston,18,-76.8,14
El Poy,14.370243,-89.209569,2
Pointe-A-Pitre,16.2411,-61.5331,6
El Golandrino,13.86139,-90.01028,1
San Alejo,13.4313889,-87.963556,2
Tempisque,13.616684,-88.556,1
Copapayo,13.7519444,-89.4711111,1
Santa Rosa de Lima,13.6247222,-87.8936111,6
Jiquilisco,13.3166667,-88.5833333,11
Las Pavas,12.0333333,-84.4333333,2
Tamanique,13.597728,-89.418532,2
Esquipulas,14.566667,-89.35,2
Tegucigalpa,14.0833,-87.2167,80
Jinotega,13.13070671,-85.9716835,28
San Vicente,13.64121,-88.785423,37
Ayacucho,-13.163874,-74.223564,233
Ayacucho,-13.163874,-74.223564,233
Lima,-12.046378,-77.042791,1802
Huaytuna,-9.823807,-76.684853,2
Lima,-12.046378,-77.042791,1802
Agua Blanca,-6.465996,-78.942078,4
Chiclayo,-6.774056,-79.843559,17
Lima,-12.046378,-77.042791,1802
Capillucas,-12.707508,-75.969184,2
Capillucas,-12.707508,-75.969184,2
Huaytuna,-9.823807,-76.684853,2
Huanta,-12.939782,-74.247478,30
Huanta,-12.939782,-74.247478,30
Huaraz,-9.529924,-77.5288,31
Huaraz,-9.529924,-77.5288,31
Quero,-11.666676,-75.350141,1
Huaraz,-9.529924,-77.5288,31
Chihua,-12.977778,-74.262222,2
Chihua,-12.977778,-74.262222,2
San Jose de Secce,-12.57906,-74.228928,4
Lima,-12.046378,-77.042791,1802
San Cayetano,10.08232,-75.13784,3
Ayacucho,-13.163874,-74.223564,233
Huancaray,-13.757245,-73.52708,1
Ayacucho,-13.163874,-74.223564,233
Ayacucho,-13.163874,-74.223564,233
Bogota,4.5981,-74.07603,605
Bucaramanga,7.131202,-73.124973,81
Ocros,-10.403488,-77.396721,4
Colombia,3.375833,-74.801389,2
Unknown,-9.32505,-77.561942,5189
Pachacamac,-12.229805,-76.859574,5
Pachacamac,-12.229805,-76.859574,5
Pachacamac,-12.229805,-76.859574,5
Huaraz,-9.529924,-77.5288,31
San Lorenzo,1.50312,-77.215513,7
Lima,-12.046378,-77.042791,1802
Santiago,-33.45,-70.55,982
Silvia,2.61091,-76.37917,2
Unknown,2.243589,-77.010385,5189
Cerro de Pasco,-10.680652,-76.259918,72
Cerro de Pasco,-10.680652,-76.259918,72
Cerro de Pasco,-10.680652,-76.259918,72
Cerro de Pasco,-10.680652,-76.259918,72
Cerro de Pasco,-10.680652,-76.259918,72
Cerro de Pasco,-10.680652,-76.259918,72
Cerro de Pasco,-10.680652,-76.259918,72
Cerro de Pasco,-10.680652,-76.259918,72
Cerro de Pasco,-10.680652,-76.259918,72
Cerro de Pasco,-10.680652,-76.259918,72
Cerro de Pasco,-10.680652,-76.259918,72
Cerro de Pasco,-10.683594,-76.25621,72
Cerro de Pasco,-10.680652,-76.259918,72
Cerro de Pasco,-10.680652,-76.259918,72
Cerro de Pasco,-10.680652,-76.259918,72
Lima,-12.046378,-77.042791,1802
Silvia district,2.61091,-76.37917,2
Quito,-0.181439,-78.467266,69
Chimbote,-9.06493,-78.579683,25
Lima,-12.046378,-77.042791,1802
Lima,-12.046378,-77.042791,1802
Lima,-12.046378,-77.042791,1802
Lima,-12.046378,-77.042791,1802
Lima,-12.046378,-77.042791,1802
Lima,-12.046378,-77.042791,1802
Castrovirreyna district,-13.283133,-75.319238,2
Lima,-12.046378,-77.042791,1802
Lima,-12.046378,-77.042791,1802
Lima,-12.046378,-77.042791,1802
Cerro de Pasco,-10.680652,-76.259918,72
Cerro de Pasco,-10.680652,-76.259918,72
Cerro de Pasco,-10.680652,-76.259918,72
Lima,-12.09913,-77.034723,1802
Lima,-12.09913,-77.034723,1802
Lima,-12.046378,-77.042791,1802
Lima,-12.100652,-77.027575,1802
Lima,-12.100652,-77.027575,1802
Lima,-12.100652,-77.027575,1802
Cochas,-12.008292,-75.196852,1
Lima,-12.046378,-77.042791,1802
Vina del Mar,-33.024705,-71.552216,58
Tincuyo,-15.249523,-73.56893,1
Palomino,-12.130158,-77.233151,1
Vina del Mar,-33.024705,-71.552216,58
Vina del Mar,-33.024705,-71.552216,58
Huanta,-12.939782,-74.247478,30
Lima,-12.046378,-77.042791,1802
Lima,-12.046378,-77.042791,1802
Lima,-12.046378,-77.042791,1802
Lima,-12.046378,-77.042791,1802
Lima,-12.046378,-77.042791,1802
Lima,-12.046378,-77.042791,1802
Lima,-12.046378,-77.042791,1802
Lima,-12.046378,-77.042791,1802
Lima,-12.046378,-77.042791,1802
Lima,-12.046378,-77.042791,1802
Morales,2.756736,-76.629934,9
Lima,-12.046378,-77.042791,1802
Lima,-12.1565,-76.965687,1802
Lima,-11.976514,-77.059896,1802
Zarate,-12.023564,-76.999887,1
Lima,-12.046378,-77.042791,1802
Lima,-12.046378,-77.042791,1802
Lima,-12.046378,-77.042791,1802
Lima,-12.046378,-77.042791,1802
Lima,-12.046378,-77.042791,1802
Lima,-12.046378,-77.042791,1802
Lima,-12.046378,-77.042791,1802
Lima,-12.046378,-77.042791,1802
Lima,-12.046378,-77.042791,1802
Lima,-12.046378,-77.042791,1802
Lima,-12.046378,-77.042791,1802
Lima,-12.046378,-77.042791,1802
Santiago,-33.469115,-70.641997,982
Vina del Mar,-33.024705,-71.552216,58
Santiago,-33.469115,-70.641997,982
Santiago,-33.469115,-70.641997,982
Santiago,-33.469115,-70.641997,982
Andahuaylas district,-13.655933,-73.389704,1
Lima,-12.046378,-77.042791,1802
Choclococha,-13.16015,-75.072161,2
Santa Ines,-13.218791,-75.104138,2
Puerto Lleras,3.2694,-73.37616,6
Anteccasa,-13.498365,-72.953176,2
Bogota,4.5981,-74.07603,605
Ledoy,-7.127765,-76.651986,1
Buenos Aires,-34.6037,-58.381503,181
Suarez,2.95258,-76.69297,5
Bogota,4.5981,-74.07603,605
Unknown,6.643708,-73.653621,5189
Mesetas,3.38463,-74.04335,6
Maca,-15.640963,-71.768689,1
Bogota,4.5981,-74.07603,605
Santiago,-33.469115,-70.641997,982
Ayacucho,-13.163874,-74.223564,233
Cali,3.420628,-76.522119,241
Lima,-12.046378,-77.042791,1802
Lima,-12.046378,-77.042791,1802
Lima,-12.046378,-77.042791,1802
Lima,-12.046378,-77.042791,1802
Lima,-12.046378,-77.042791,1802
Lima,-12.046378,-77.042791,1802
Lima,-12.046378,-77.042791,1802
Lima,-12.046378,-77.042791,1802
Lima,-12.046378,-77.042791,1802
Lima,-12.046378,-77.042791,1802
Lima,-12.046378,-77.042791,1802
Toraya,-14.053026,-73.294548,3
Lima,-12.046378,-77.042791,1802
Lima,-12.046378,-77.042791,1802
Bogota,4.5981,-74.07603,605
Ayacucho,-13.163874,-74.223564,233
La Union,4.53581,-76.10659,15
Ayaviri,-12.38394,-76.136119,2
Itagui,6.17215,-75.609571,12
Unknown,8.402925,-75.899867,5189
Villarrica,3.934847,-74.601414,2
Aymaraes district,-14.327196,-73.182187,1
Toraya,-14.053026,-73.294548,3
Cali,3.420628,-76.522119,241
Ayacucho,-13.163874,-74.223564,233
Jamundi,3.261782,-76.540886,5
Bogota,4.5981,-74.07603,605
Unknown,6.643708,-73.653621,5189
Turbo,8.09242,-76.72738,22
Arauca,7.08582,-70.75779,31
Bogota,4.5981,-74.07603,605
Buenos Aires,-34.6037,-58.381503,181
Buenos Aires,-34.6037,-58.381503,181
Lonquen,-33.711352,-70.854819,1
Cintura,8.433477,-75.269052,1
Santiago,-33.469115,-70.641997,982
Santiago,-33.469115,-70.641997,982
Lima,-12.046378,-77.042791,1802
Santiago,-33.469115,-70.641997,982
Santiago,-33.469115,-70.641997,982
Santiago,-33.469115,-70.641997,982
Santiago,-33.469115,-70.641997,982
Puente Alto,-33.616667,-70.566667,2
La Voragine,3.343884,-76.592269,1
Pance,3.328434,-76.638679,1
Cali,3.420628,-76.522119,241
Cali,3.420628,-76.522119,241
Bogota,4.5981,-74.07603,605
Lima,-12.046378,-77.042791,1802
Lima,-12.046378,-77.042791,1802
Bogota,4.5981,-74.07603,605
Lima,-12.046378,-77.042791,1802
Lima,-12.046378,-77.042791,1802
Lima,-12.046378,-77.042791,1802
Lima,-12.046378,-77.042791,1802
Lima,-12.046378,-77.042791,1802
Lima,-12.046378,-77.042791,1802
Lima,-12.046378,-77.042791,1802
Lima,-12.046378,-77.042791,1802
Chiclayo,-6.779131,-79.83942,17
