[
 {
  "city" : "Baghdad",
  "latitude" : 33.3,
  "longitude" : 44.4,
  "attacks" : 5952
 },
 {
  "city" : "karachi",
  "latitude" : 24.893379,
  "longitude" : 67.028061,
  "attacks" : 2309
 },
 {
  "city" : "lima",
  "latitude" : -12.046378,
  "longitude" : -77.042791,
  "attacks" : 1802
 },
 {
  "city" : "Mosul",
  "latitude" : 36.34,
  "longitude" : 43.13,
  "attacks" : 1435
 },
 {
  "city" : "Mogadishu",
  "latitude" : 2.03742,
  "longitude" : 45.337971,
  "attacks" : 1077
 },
 {
  "city" : "santiago",
  "latitude" : -33.469115,
  "longitude" : -70.641997,
  "attacks" : 982
 },
 {
  "city" : "Kirkuk",
  "latitude" : 35.46883,
  "longitude" : 44.39098,
  "attacks" : 783
 },
 {
  "city" : "belfast",
  "latitude" : 54.597269,
  "longitude" : -5.930109,
  "attacks" : 777
 },
 {
  "city" : "Istanbul",
  "latitude" : 41.010676,
  "longitude" : 28.957255,
  "attacks" : 715
 },
 {
  "city" : "medellin",
  "latitude" : 6.270526,
  "longitude" : -75.572173,
  "attacks" : 680
 },
 {
  "city" : "Athens",
  "latitude" : 37.97918,
  "longitude" : 23.716647,
  "attacks" : 668
 },
 {
  "city" : "Baqubah",
  "latitude" : 33.75,
  "longitude" : 44.633333,
  "attacks" : 656
 },
 {
  "city" : "Benghazi",
  "latitude" : 32.1011,
  "longitude" : 20.085275,
  "attacks" : 643
 },
 {
  "city" : "quetta",
  "latitude" : 30.182125,
  "longitude" : 67.000517,
  "attacks" : 625
 },
 {
  "city" : "peshawar",
  "latitude" : 34.009667,
  "longitude" : 71.579994,
  "attacks" : 622
 },
 {
  "city" : "bogota",
  "latitude" : 4.5981,
  "longitude" : -74.07603,
  "attacks" : 605
 },
 {
  "city" : "srinagar",
  "latitude" : 34.083658,
  "longitude" : 74.797368,
  "attacks" : 557
 },
 {
  "city" : "san salvador",
  "latitude" : 13.69288,
  "longitude" : -89.199161,
  "attacks" : 529
 },
 {
  "city" : "dhaka",
  "latitude" : 23.811388,
  "longitude" : 90.412106,
  "attacks" : 486
 },
 {
  "city" : "Kabul",
  "latitude" : 34.533056,
  "longitude" : 69.166111,
  "attacks" : 486
 },
 {
  "city" : "Fallujah",
  "latitude" : 33.35004,
  "longitude" : 43.783488,
  "attacks" : 455
 },
 {
  "city" : "Tripoli",
  "latitude" : 34.438094,
  "longitude" : 35.830837,
  "attacks" : 428
 },
 {
  "city" : "beirut",
  "latitude" : 33.888629,
  "longitude" : 35.495479,
  "attacks" : 427
 },
 {
  "city" : "manila",
  "latitude" : 14.596051,
  "longitude" : 120.978666,
  "attacks" : 387
 },
 {
  "city" : "Ramadi",
  "latitude" : 33.431899,
  "longitude" : 43.311566,
  "attacks" : 367
 },
 {
  "city" : "algiers",
  "latitude" : 36.7525,
  "longitude" : 3.04197,
  "attacks" : 365
 },
 {
  "city" : "Tikrit",
  "latitude" : 34.604447,
  "longitude" : 43.685789,
  "attacks" : 335
 },
 {
  "city" : "Sanaa",
  "latitude" : 15.369445,
  "longitude" : 44.191007,
  "attacks" : 327
 },
 {
  "city" : "Maiduguri",
  "latitude" : 11.833333,
  "longitude" : 13.15,
  "attacks" : 319
 },
 {
  "city" : "Kandahar",
  "latitude" : 31.617667,
  "longitude" : 65.675942,
  "attacks" : 293
 },
 {
  "city" : "Jerusalem",
  "latitude" : 31.766496,
  "longitude" : 35.21172,
  "attacks" : 291
 },
 {
  "city" : "Damascus",
  "latitude" : 33.512753,
  "longitude" : 36.295873,
  "attacks" : 289
 },
 {
  "city" : "colombo",
  "latitude" : 6.927079,
  "longitude" : 79.861243,
  "attacks" : 280
 },
 {
  "city" : "Gaza",
  "latitude" : 31.522561,
  "longitude" : 34.453593,
  "attacks" : 253
 },
 {
  "city" : "Tuz Khormato",
  "latitude" : 34.881394,
  "longitude" : 44.63066,
  "attacks" : 248
 },
 {
  "city" : "guatemala city",
  "latitude" : 14.624422,
  "longitude" : -90.53288,
  "attacks" : 247
 },
 {
  "city" : "Imphal",
  "latitude" : 24.817011,
  "longitude" : 93.936844,
  "attacks" : 247
 },
 {
  "city" : "Arish",
  "latitude" : 31.132093,
  "longitude" : 33.803276,
  "attacks" : 246
 },
 {
  "city" : "cali",
  "latitude" : 3.420628,
  "longitude" : -76.522119,
  "attacks" : 241
 },
 {
  "city" : "Ayacucho",
  "latitude" : -13.163874,
  "longitude" : -74.223564,
  "attacks" : 233
 },
 {
  "city" : "Samarra",
  "latitude" : 34.192537,
  "longitude" : 43.886423,
  "attacks" : 232
 },
 {
  "city" : "Abu Ghraib",
  "latitude" : 33.291944,
  "longitude" : 44.065556,
  "attacks" : 230
 },
 {
  "city" : "Baiji",
  "latitude" : 34.929159,
  "longitude" : 43.493025,
  "attacks" : 213
 },
 {
  "city" : "johannesburg",
  "latitude" : -26.177929,
  "longitude" : 27.974858,
  "attacks" : 202
 },
 {
  "city" : "lahore",
  "latitude" : 31.554606,
  "longitude" : 74.357158,
  "attacks" : 192
 },
 {
  "city" : "Aden",
  "latitude" : 12.852693,
  "longitude" : 44.894836,
  "attacks" : 190
 },
 {
  "city" : "Jalalabad",
  "latitude" : 34.434167,
  "longitude" : 70.447778,
  "attacks" : 190
 },
 {
  "city" : "Ajaccio",
  "latitude" : 41.919026,
  "longitude" : 8.738432,
  "attacks" : 189
 },
 {
  "city" : "Bastia",
  "latitude" : 42.697422,
  "longitude" : 9.450099,
  "attacks" : 185
 },
 {
  "city" : "Buenos Aires",
  "latitude" : -34.6037,
  "longitude" : -58.381503,
  "attacks" : 181
 },
 {
  "city" : "Grozny",
  "latitude" : 43.316667,
  "longitude" : 45.683333,
  "attacks" : 180
 },
 {
  "city" : "Donetsk",
  "latitude" : 48.016568,
  "longitude" : 37.797675,
  "attacks" : 178
 },
 {
  "city" : "Aleppo",
  "latitude" : 36.212989,
  "longitude" : 37.142588,
  "attacks" : 177
 },
 {
  "city" : "Basra",
  "latitude" : 30.5,
  "longitude" : 47.816667,
  "attacks" : 174
 },
 {
  "city" : "Madain",
  "latitude" : 33.098837,
  "longitude" : 44.584951,
  "attacks" : 173
 },
 {
  "city" : "Rafah",
  "latitude" : 31.288323,
  "longitude" : 34.252164,
  "attacks" : 166
 },
 {
  "city" : "Bangkok",
  "latitude" : 13.727896,
  "longitude" : 100.524123,
  "attacks" : 164
 },
 {
  "city" : "Kismayo",
  "latitude" : -0.357077,
  "longitude" : 42.546636,
  "attacks" : 164
 },
 {
  "city" : "Makhachkala",
  "latitude" : 42.978368,
  "longitude" : 47.491066,
  "attacks" : 163
 },
 {
  "city" : "Paris",
  "latitude" : 48.856614,
  "longitude" : 2.352222,
  "attacks" : 162
 },
 {
  "city" : "Bara",
  "latitude" : 24.031667,
  "longitude" : 79.151389,
  "attacks" : 161
 },
 {
  "city" : "Mahmudiyah",
  "latitude" : 33.055377,
  "longitude" : 44.37146,
  "attacks" : 160
 },
 {
  "city" : "Batticaloa",
  "latitude" : 7.716666,
  "longitude" : 81.700188,
  "attacks" : 155
 },
 {
  "city" : "Bujumbura",
  "latitude" : -3.382942,
  "longitude" : 29.367103,
  "attacks" : 155
 },
 {
  "city" : "huancayo",
  "latitude" : -12.068306,
  "longitude" : -75.210163,
  "attacks" : 155
 },
 {
  "city" : "London",
  "latitude" : 51.500152,
  "longitude" : -0.126236,
  "attacks" : 155
 },
 {
  "city" : "Khost",
  "latitude" : 33.336728,
  "longitude" : 69.923834,
  "attacks" : 151
 },
 {
  "city" : "Muqdadiyah",
  "latitude" : 33.971348,
  "longitude" : 44.92668,
  "attacks" : 149
 },
 {
  "city" : "Jaffna",
  "latitude" : 9.66123,
  "longitude" : 80.02558,
  "attacks" : 148
 },
 {
  "city" : "Taji",
  "latitude" : 33.530734,
  "longitude" : 44.274292,
  "attacks" : 147
 },
 {
  "city" : "Tarmiyah",
  "latitude" : 33.664354,
  "longitude" : 44.373779,
  "attacks" : 146
 },
 {
  "city" : "Lashkar Gah",
  "latitude" : 31.583056,
  "longitude" : 64.369167,
  "attacks" : 141
 },
 {
  "city" : "cairo",
  "latitude" : 30.05,
  "longitude" : 31.25,
  "attacks" : 139
 },
 {
  "city" : "chittagong",
  "latitude" : 22.347537,
  "longitude" : 91.812332,
  "attacks" : 135
 },
 {
  "city" : "Hillah",
  "latitude" : 32.483333,
  "longitude" : 44.433333,
  "attacks" : 135
 },
 {
  "city" : "Londonderry",
  "latitude" : 54.99451,
  "longitude" : -7.319996,
  "attacks" : 133
 },
 {
  "city" : "Jamrud",
  "latitude" : 34.00161,
  "longitude" : 71.381807,
  "attacks" : 130
 },
 {
  "city" : "Trincomalee",
  "latitude" : 8.5922,
  "longitude" : 81.196796,
  "attacks" : 130
 },
 {
  "city" : "Ghazni",
  "latitude" : 33.55,
  "longitude" : 68.416667,
  "attacks" : 129
 },
 {
  "city" : "Baidoa",
  "latitude" : 3.120033,
  "longitude" : 43.650184,
  "attacks" : 127
 },
 {
  "city" : "Bilbao",
  "latitude" : 43.256963,
  "longitude" : -2.923441,
  "attacks" : 127
 },
 {
  "city" : "Yala",
  "latitude" : 6.541102,
  "longitude" : 101.280408,
  "attacks" : 127
 },
 {
  "city" : "Mohmand district",
  "latitude" : 34.565494,
  "longitude" : 71.477429,
  "attacks" : 124
 },
 {
  "city" : "Soweto",
  "latitude" : -26.246319,
  "longitude" : 27.853677,
  "attacks" : 122
 },
 {
  "city" : "new delhi",
  "latitude" : 28.632381,
  "longitude" : 77.220004,
  "attacks" : 121
 },
 {
  "city" : "Sheikh Zuweid",
  "latitude" : 31.170527,
  "longitude" : 34.218948,
  "attacks" : 121
 },
 {
  "city" : "hyderabad",
  "latitude" : 25.377846,
  "longitude" : 68.346304,
  "attacks" : 120
 },
 {
  "city" : "Hebron",
  "latitude" : 31.532569,
  "longitude" : 35.099826,
  "attacks" : 119
 },
 {
  "city" : "Landi Kotal",
  "latitude" : 34.1167788,
  "longitude" : 71.1665154,
  "attacks" : 119
 },
 {
  "city" : "Madrid",
  "latitude" : 40.416691,
  "longitude" : -3.700345,
  "attacks" : 117
 },
 {
  "city" : "Dera bugti",
  "latitude" : 29.035482,
  "longitude" : 69.1531,
  "attacks" : 116
 },
 {
  "city" : "Bannu",
  "latitude" : 32.984995,
  "longitude" : 70.606944,
  "attacks" : 115
 },
 {
  "city" : "Zamboanga city",
  "latitude" : 6.908868,
  "longitude" : 122.0772,
  "attacks" : 115
 },
 {
  "city" : "Hangu",
  "latitude" : 33.443839,
  "longitude" : 70.907124,
  "attacks" : 114
 },
 {
  "city" : "Cotabato city",
  "latitude" : 7.218171,
  "longitude" : 124.248033,
  "attacks" : 113
 },
 {
  "city" : "Donostia-San Sebastian",
  "latitude" : 43.320812,
  "longitude" : -1.984447,
  "attacks" : 113
 },
 {
  "city" : "islamabad",
  "latitude" : 33.708988,
  "longitude" : 73.053857,
  "attacks" : 113
 },
 {
  "city" : "Karbala",
  "latitude" : 32.613992,
  "longitude" : 44.025046,
  "attacks" : 113
 },
 {
  "city" : "Muang",
  "latitude" : 6.541706,
  "longitude" : 101.283465,
  "attacks" : 112
 },
 {
  "city" : "Dushanbe",
  "latitude" : 38.536667,
  "longitude" : 68.78,
  "attacks" : 110
 },
 {
  "city" : "Bajaur district",
  "latitude" : 34.856902,
  "longitude" : 71.429936,
  "attacks" : 109
 },
 {
  "city" : "Derna",
  "latitude" : 32.759008,
  "longitude" : 22.640586,
  "attacks" : 109
 },
 {
  "city" : "Port-au-Prince",
  "latitude" : 18.5391667,
  "longitude" : -72.335,
  "attacks" : 109
 },
 {
  "city" : "tokyo",
  "latitude" : 35.685826,
  "longitude" : 139.756684,
  "attacks" : 109
 },
 {
  "city" : "Nazran",
  "latitude" : 43.216667,
  "longitude" : 44.766667,
  "attacks" : 108
 },
 {
  "city" : "Nablus",
  "latitude" : 32.22626,
  "longitude" : 35.260741,
  "attacks" : 107
 },
 {
  "city" : "Kano",
  "latitude" : 12.000007,
  "longitude" : 8.516588,
  "attacks" : 105
 },
 {
  "city" : "Kathmandu",
  "latitude" : 27.718332,
  "longitude" : 85.325337,
  "attacks" : 104
 },
 {
  "city" : "Taizz",
  "latitude" : 13.564492,
  "longitude" : 44.030692,
  "attacks" : 104
 },
 {
  "city" : "Balad",
  "latitude" : 34.016389,
  "longitude" : 44.145278,
  "attacks" : 102
 },
 {
  "city" : "Beledweyne",
  "latitude" : 4.736387,
  "longitude" : 45.204142,
  "attacks" : 100
 },
 {
  "city" : "dera ismail khan",
  "latitude" : 31.82851,
  "longitude" : 70.907234,
  "attacks" : 100
 },
 {
  "city" : "Herat",
  "latitude" : 34.341944,
  "longitude" : 62.203056,
  "attacks" : 100
 },
 {
  "city" : "Sidon",
  "latitude" : 33.562839,
  "longitude" : 35.36887,
  "attacks" : 100
 },
 {
  "city" : "amritsar",
  "latitude" : 31.633979,
  "longitude" : 74.872264,
  "attacks" : 99
 },
 {
  "city" : "Sangin district",
  "latitude" : 32.073333,
  "longitude" : 64.833889,
  "attacks" : 99
 },
 {
  "city" : "Yusufiyah",
  "latitude" : 33.078997,
  "longitude" : 44.2599,
  "attacks" : 99
 },
 {
  "city" : "Miran Shah",
  "latitude" : 32.998617,
  "longitude" : 70.067081,
  "attacks" : 97
 },
 {
  "city" : "Ankara",
  "latitude" : 39.919636,
  "longitude" : 32.85664,
  "attacks" : 96
 },
 {
  "city" : "Karma",
  "latitude" : 33.399722,
  "longitude" : 43.908889,
  "attacks" : 96
 },
 {
  "city" : "Kunduz",
  "latitude" : 36.733333,
  "longitude" : 68.866667,
  "attacks" : 94
 },
 {
  "city" : "Vavuniya",
  "latitude" : 8.738157,
  "longitude" : 80.477147,
  "attacks" : 94
 },
 {
  "city" : "Berlin",
  "latitude" : 13.49446,
  "longitude" : -88.530343,
  "attacks" : 91
 },
 {
  "city" : "Durban",
  "latitude" : -29.858343,
  "longitude" : 31.021827,
  "attacks" : 91
 },
 {
  "city" : "Iskandariyah",
  "latitude" : 32.88504,
  "longitude" : 44.348,
  "attacks" : 89
 },
 {
  "city" : "Rawalpindi",
  "latitude" : 33.600399,
  "longitude" : 73.043426,
  "attacks" : 86
 },
 {
  "city" : "Tarin Kot",
  "latitude" : 32.666404,
  "longitude" : 65.903629,
  "attacks" : 86
 },
 {
  "city" : "Kohat",
  "latitude" : 33.583401,
  "longitude" : 71.433219,
  "attacks" : 85
 },
 {
  "city" : "Sirte",
  "latitude" : 31.20528,
  "longitude" : 16.588369,
  "attacks" : 84
 },
 {
  "city" : "Tal Afar",
  "latitude" : 36.374029,
  "longitude" : 42.451435,
  "attacks" : 84
 },
 {
  "city" : "Diyarbakir",
  "latitude" : 37.915683,
  "longitude" : 40.231621,
  "attacks" : 83
 },
 {
  "city" : "Sopore",
  "latitude" : 34.286763,
  "longitude" : 74.462401,
  "attacks" : 83
 },
 {
  "city" : "barcelona",
  "latitude" : 41.387917,
  "longitude" : 2.169919,
  "attacks" : 82
 },
 {
  "city" : "Gereshk",
  "latitude" : 31.824084,
  "longitude" : 64.55896,
  "attacks" : 82
 },
 {
  "city" : "bucaramanga",
  "latitude" : 7.131202,
  "longitude" : -73.124973,
  "attacks" : 81
 },
 {
  "city" : "Davao city",
  "latitude" : 7.074044,
  "longitude" : 125.616549,
  "attacks" : 81
 },
 {
  "city" : "Tegucigalpa",
  "latitude" : 14.0833,
  "longitude" : -87.2167,
  "attacks" : 80
 },
 {
  "city" : "Khuzdar",
  "latitude" : 27.80451,
  "longitude" : 66.614133,
  "attacks" : 79
 },
 {
  "city" : "La Paz",
  "latitude" : -16.500194,
  "longitude" : -68.150162,
  "attacks" : 79
 },
 {
  "city" : "Orakzai district",
  "latitude" : 33.697271,
  "longitude" : 71.144852,
  "attacks" : 79
 },
 {
  "city" : "Sderot",
  "latitude" : 31.524133,
  "longitude" : 34.596527,
  "attacks" : 79
 },
 {
  "city" : "Valparaiso",
  "latitude" : -33.045632,
  "longitude" : -71.620529,
  "attacks" : 79
 },
 {
  "city" : "Cape town",
  "latitude" : -33.925313,
  "longitude" : 18.426329,
  "attacks" : 78
 },
 {
  "city" : "Sadiyah",
  "latitude" : 34.186336,
  "longitude" : 45.126056,
  "attacks" : 77
 },
 {
  "city" : "Khalis",
  "latitude" : 33.851043,
  "longitude" : 44.519491,
  "attacks" : 76
 },
 {
  "city" : "Moscow",
  "latitude" : 55.75,
  "longitude" : 37.616667,
  "attacks" : 76
 },
 {
  "city" : "Tel Aviv",
  "latitude" : 32.085688,
  "longitude" : 34.783684,
  "attacks" : 76
 },
 {
  "city" : "Galkayo",
  "latitude" : 6.772224,
  "longitude" : 47.429309,
  "attacks" : 75
 },
 {
  "city" : "Khyber district",
  "latitude" : 33.908578,
  "longitude" : 71.070055,
  "attacks" : 75
 },
 {
  "city" : "Riyadh",
  "latitude" : 24.64732,
  "longitude" : 46.714581,
  "attacks" : 75
 },
 {
  "city" : "Hawijah",
  "latitude" : 35.324817,
  "longitude" : 43.766813,
  "attacks" : 74
 },
 {
  "city" : "Kurram district",
  "latitude" : 33.695975,
  "longitude" : 70.336069,
  "attacks" : 74
 },
 {
  "city" : "Thessaloniki",
  "latitude" : 40.639349,
  "longitude" : 22.944616,
  "attacks" : 74
 },
 {
  "city" : "turbat",
  "latitude" : 26.004167,
  "longitude" : 63.060556,
  "attacks" : 74
 },
 {
  "city" : "Khasavyurt",
  "latitude" : 43.390031,
  "longitude" : 46.616657,
  "attacks" : 73
 },
 {
  "city" : "Shabqadar",
  "latitude" : 34.217542,
  "longitude" : 71.561375,
  "attacks" : 73
 },
 {
  "city" : "Sui",
  "latitude" : 28.638421,
  "longitude" : 69.204747,
  "attacks" : 73
 },
 {
  "city" : "Tehran",
  "latitude" : 35.696442,
  "longitude" : 51.422974,
  "attacks" : 73
 },
 {
  "city" : "Barrancabermeja",
  "latitude" : 7.060051,
  "longitude" : -73.853115,
  "attacks" : 72
 },
 {
  "city" : "Cerro de Pasco",
  "latitude" : -10.680652,
  "longitude" : -76.259918,
  "attacks" : 72
 },
 {
  "city" : "Homs",
  "latitude" : 34.709034,
  "longitude" : 36.687609,
  "attacks" : 72
 },
 {
  "city" : "guwahati",
  "latitude" : 26.179222,
  "longitude" : 91.753346,
  "attacks" : 71
 },
 {
  "city" : "Merca",
  "latitude" : 1.716245,
  "longitude" : 44.771563,
  "attacks" : 70
 },
 {
  "city" : "Batticaloa district",
  "latitude" : 7.716666,
  "longitude" : 81.700188,
  "attacks" : 69
 },
 {
  "city" : "quito",
  "latitude" : -0.181439,
  "longitude" : -78.467266,
  "attacks" : 69
 },
 {
  "city" : "Shirqat",
  "latitude" : 35.493072,
  "longitude" : 43.24237,
  "attacks" : 69
 },
 {
  "city" : "Ashkelon",
  "latitude" : 31.669316,
  "longitude" : 34.570802,
  "attacks" : 68
 },
 {
  "city" : "Bangui",
  "latitude" : 4.396901,
  "longitude" : 18.561947,
  "attacks" : 68
 },
 {
  "city" : "Dujail",
  "latitude" : 33.85,
  "longitude" : 44.233333,
  "attacks" : 68
 },
 {
  "city" : "Latifiyah",
  "latitude" : 32.98499,
  "longitude" : 44.35676,
  "attacks" : 68
 },
 {
  "city" : "Mukalla",
  "latitude" : 14.543537,
  "longitude" : 49.127285,
  "attacks" : 67
 },
 {
  "city" : "Balad Ruz",
  "latitude" : 33.7,
  "longitude" : 45.083333,
  "attacks" : 66
 },
 {
  "city" : "ludhiana",
  "latitude" : 30.900965,
  "longitude" : 75.857276,
  "attacks" : 66
 },
 {
  "city" : "cucuta",
  "latitude" : 7.894195,
  "longitude" : -72.503885,
  "attacks" : 65
 },
 {
  "city" : "Nairobi",
  "latitude" : -1.28518,
  "longitude" : 36.821107,
  "attacks" : 65
 },
 {
  "city" : "San Miguel",
  "latitude" : 12.15,
  "longitude" : -86.21667,
  "attacks" : 65
 },
 {
  "city" : "Zinjibar",
  "latitude" : 13.129737,
  "longitude" : 45.380083,
  "attacks" : 65
 },
 {
  "city" : "Port Harcourt",
  "latitude" : 4.78482,
  "longitude" : 7.00545,
  "attacks" : 64
 },
 {
  "city" : "Potiskum",
  "latitude" : 11.70896,
  "longitude" : 11.06997,
  "attacks" : 64
 },
 {
  "city" : "Blida",
  "latitude" : 36.480453,
  "longitude" : 2.83388,
  "attacks" : 63
 },
 {
  "city" : "Caracas",
  "latitude" : 10.502961,
  "longitude" : -66.917253,
  "attacks" : 63
 },
 {
  "city" : "Pir Koh",
  "latitude" : 29.140991,
  "longitude" : 69.096085,
  "attacks" : 63
 },
 {
  "city" : "Puli Alam",
  "latitude" : 33.999938,
  "longitude" : 69.019532,
  "attacks" : 63
 },
 {
  "city" : "Eshkol regional council",
  "latitude" : 31.192114,
  "longitude" : 34.449473,
  "attacks" : 62
 },
 {
  "city" : "Mallawi",
  "latitude" : 27.7319444,
  "longitude" : 30.8411111,
  "attacks" : 62
 },
 {
  "city" : "Nahrawan",
  "latitude" : 33.376979,
  "longitude" : 44.702984,
  "attacks" : 62
 },
 {
  "city" : "Shindand district",
  "latitude" : 31.506944,
  "longitude" : 65.8475,
  "attacks" : 62
 },
 {
  "city" : "Jalula",
  "latitude" : 34.271944,
  "longitude" : 45.168056,
  "attacks" : 61
 },
 {
  "city" : "Nahri Saraj district",
  "latitude" : 31.779468,
  "longitude" : 64.588964,
  "attacks" : 61
 },
 {
  "city" : "Qalat",
  "latitude" : 32.107585,
  "longitude" : 66.913142,
  "attacks" : 61
 },
 {
  "city" : "Khan Yunis",
  "latitude" : 31.349998,
  "longitude" : 34.299627,
  "attacks" : 60
 },
 {
  "city" : "Mardan",
  "latitude" : 34.416681,
  "longitude" : 71.92459,
  "attacks" : 60
 },
 {
  "city" : "Jolo",
  "latitude" : 6.052979,
  "longitude" : 121.002479,
  "attacks" : 59
 },
 {
  "city" : "Wana",
  "latitude" : 32.301964,
  "longitude" : 69.590665,
  "attacks" : 59
 },
 {
  "city" : "Afgoye",
  "latitude" : 2.142498,
  "longitude" : 45.118475,
  "attacks" : 58
 },
 {
  "city" : "Concepcion",
  "latitude" : -11.918478,
  "longitude" : -75.312889,
  "attacks" : 58
 },
 {
  "city" : "Kut",
  "latitude" : 32.505556,
  "longitude" : 45.824722,
  "attacks" : 58
 },
 {
  "city" : "Pattani",
  "latitude" : 6.869484,
  "longitude" : 101.250483,
  "attacks" : 58
 },
 {
  "city" : "Saba al-Bor",
  "latitude" : 33.462707,
  "longitude" : 44.157787,
  "attacks" : 58
 },
 {
  "city" : "Vina del mar",
  "latitude" : -33.024705,
  "longitude" : -71.552216,
  "attacks" : 58
 },
 {
  "city" : "Bosaso",
  "latitude" : 11.28428,
  "longitude" : 49.180423,
  "attacks" : 57
 },
 {
  "city" : "Charsadda",
  "latitude" : 34.148181,
  "longitude" : 71.730028,
  "attacks" : 57
 },
 {
  "city" : "Jakarta",
  "latitude" : -6.208821,
  "longitude" : 106.846046,
  "attacks" : 57
 },
 {
  "city" : "Mandera",
  "latitude" : 3.935639,
  "longitude" : 41.855116,
  "attacks" : 57
 },
 {
  "city" : "South Waziristan district",
  "latitude" : 32.329315,
  "longitude" : 69.856396,
  "attacks" : 57
 },
 {
  "city" : "anantnag",
  "latitude" : 33.733336,
  "longitude" : 75.148983,
  "attacks" : 56
 },
 {
  "city" : "Gardez",
  "latitude" : 33.6,
  "longitude" : 69.21694,
  "attacks" : 55
 },
 {
  "city" : "Husseiniyah",
  "latitude" : 33.546416,
  "longitude" : 44.413249,
  "attacks" : 55
 },
 {
  "city" : "Kigali",
  "latitude" : -1.949011,
  "longitude" : 30.057852,
  "attacks" : 55
 },
 {
  "city" : "Mingora",
  "latitude" : 34.77436,
  "longitude" : 72.356922,
  "attacks" : 55
 },
 {
  "city" : "Badaber",
  "latitude" : 33.911149,
  "longitude" : 71.55468,
  "attacks" : 54
 },
 {
  "city" : "Bannang Sata",
  "latitude" : 6.242799,
  "longitude" : 101.297732,
  "attacks" : 54
 },
 {
  "city" : "Damaturu",
  "latitude" : 11.744239,
  "longitude" : 11.961204,
  "attacks" : 54
 },
 {
  "city" : "Garissa",
  "latitude" : -0.45612,
  "longitude" : 39.646123,
  "attacks" : 54
 },
 {
  "city" : "Managua",
  "latitude" : 12.136389,
  "longitude" : -86.251389,
  "attacks" : 54
 },
 {
  "city" : "Musa Qala district",
  "latitude" : 32.323203,
  "longitude" : 64.811084,
  "attacks" : 54
 },
 {
  "city" : "Arsal",
  "latitude" : 34.1791,
  "longitude" : 36.420664,
  "attacks" : 53
 },
 {
  "city" : "Mantaro district",
  "latitude" : -11.822224,
  "longitude" : -75.392952,
  "attacks" : 53
 },
 {
  "city" : "Nalchik",
  "latitude" : 43.484122,
  "longitude" : 43.627361,
  "attacks" : 53
 },
 {
  "city" : "Ramallah",
  "latitude" : 31.900975,
  "longitude" : 35.204318,
  "attacks" : 53
 },
 {
  "city" : "Safi",
  "latitude" : 34.574856,
  "longitude" : 71.276081,
  "attacks" : 53
 },
 {
  "city" : "Tuz Khormato district",
  "latitude" : 34.88576,
  "longitude" : 44.639424,
  "attacks" : 53
 },
 {
  "city" : "Vitoria",
  "latitude" : 42.846718,
  "longitude" : -2.671635,
  "attacks" : 53
 },
 {
  "city" : "apartado",
  "latitude" : 7.882318,
  "longitude" : -76.630626,
  "attacks" : 52
 },
 {
  "city" : "Buhriz",
  "latitude" : 33.7,
  "longitude" : 44.666667,
  "attacks" : 52
 },
 {
  "city" : "Hadithah",
  "latitude" : 34.133066,
  "longitude" : 42.383225,
  "attacks" : 52
 },
 {
  "city" : "Jammu",
  "latitude" : 32.726602,
  "longitude" : 74.857026,
  "attacks" : 52
 },
 {
  "city" : "Mexico city",
  "latitude" : 19.432608,
  "longitude" : -99.133207,
  "attacks" : 52
 },
 {
  "city" : "Rome",
  "latitude" : 41.89052,
  "longitude" : 12.494249,
  "attacks" : 52
 },
 {
  "city" : "brussels",
  "latitude" : 50.850335,
  "longitude" : 4.351685,
  "attacks" : 51
 },
 {
  "city" : "Panjgur",
  "latitude" : 26.964096,
  "longitude" : 64.093227,
  "attacks" : 51
 },
 {
  "city" : "Chaman",
  "latitude" : 30.929589,
  "longitude" : 66.468052,
  "attacks" : 50
 },
 {
  "city" : "Farah",
  "latitude" : 32.375081,
  "longitude" : 62.115759,
  "attacks" : 50
 },
 {
  "city" : "Lahij",
  "latitude" : 13.076797,
  "longitude" : 44.87808,
  "attacks" : 50
 },
 {
  "city" : "Narathiwat",
  "latitude" : 6.190088,
  "longitude" : 101.797961,
  "attacks" : 50
 },
 {
  "city" : "Qarabagh district",
  "latitude" : 33.193665,
  "longitude" : 68.102002,
  "attacks" : 50
 },
 {
  "city" : "Raman",
  "latitude" : 6.491822,
  "longitude" : 101.3885,
  "attacks" : 50
 },
 {
  "city" : "Sederot",
  "latitude" : 31.522694,
  "longitude" : 34.595581,
  "attacks" : 50
 },
 {
  "city" : "Adana",
  "latitude" : 37.006731,
  "longitude" : 35.324115,
  "attacks" : 49
 },
 {
  "city" : "Cartagena",
  "latitude" : 10.413711,
  "longitude" : -75.533549,
  "attacks" : 49
 },
 {
  "city" : "Luanda",
  "latitude" : -8.838837,
  "longitude" : 13.235582,
  "attacks" : 49
 },
 {
  "city" : "Maywand district",
  "latitude" : 31.623036,
  "longitude" : 65.054246,
  "attacks" : 49
 },
 {
  "city" : "Panama City",
  "latitude" : 8.994269,
  "longitude" : -79.518792,
  "attacks" : 49
 },
 {
  "city" : "Dera Murad Jamali",
  "latitude" : 28.547657,
  "longitude" : 68.218994,
  "attacks" : 48
 },
 {
  "city" : "Mir Ali",
  "latitude" : 32.969967,
  "longitude" : 70.276797,
  "attacks" : 47
 },
 {
  "city" : "Pamplona",
  "latitude" : 42.817988,
  "longitude" : -1.644184,
  "attacks" : 47
 },
 {
  "city" : "Shyrokyne",
  "latitude" : 47.098999,
  "longitude" : 37.818009,
  "attacks" : 47
 },
 {
  "city" : "Andar district",
  "latitude" : 33.319571,
  "longitude" : 68.451297,
  "attacks" : 46
 },
 {
  "city" : "Hamburg",
  "latitude" : 53.553813,
  "longitude" : 9.991586,
  "attacks" : 46
 },
 {
  "city" : "Hammam al-Alil",
  "latitude" : 36.158179,
  "longitude" : 43.253263,
  "attacks" : 46
 },
 {
  "city" : "Hawijah district",
  "latitude" : 35.324817,
  "longitude" : 43.766813,
  "attacks" : 46
 },
 {
  "city" : "Hit",
  "latitude" : 33.639521,
  "longitude" : 42.838015,
  "attacks" : 46
 },
 {
  "city" : "Izmir",
  "latitude" : 38.419047,
  "longitude" : 27.132045,
  "attacks" : 46
 },
 {
  "city" : "kabacan",
  "latitude" : 7.107355,
  "longitude" : 124.827773,
  "attacks" : 46
 },
 {
  "city" : "Latehar district",
  "latitude" : 23.744186,
  "longitude" : 84.504429,
  "attacks" : 46
 },
 {
  "city" : "Nowshera",
  "latitude" : 34.014167,
  "longitude" : 71.976154,
  "attacks" : 46
 },
 {
  "city" : "quezon city",
  "latitude" : 14.677301,
  "longitude" : 121.044348,
  "attacks" : 46
 },
 {
  "city" : "Swat district",
  "latitude" : 35.481293,
  "longitude" : 72.524259,
  "attacks" : 46
 },
 {
  "city" : "Yarang",
  "latitude" : 6.828057,
  "longitude" : 101.3885,
  "attacks" : 46
 },
 {
  "city" : "Hayatabad",
  "latitude" : 33.979722,
  "longitude" : 71.442801,
  "attacks" : 45
 },
 {
  "city" : "North Waziristan district",
  "latitude" : 32.94756,
  "longitude" : 70.012672,
  "attacks" : 45
 },
 {
  "city" : "Bala Buluk district",
  "latitude" : 32.625149,
  "longitude" : 62.479768,
  "attacks" : 44
 },
 {
  "city" : "Newry",
  "latitude" : 54.18006,
  "longitude" : -6.33393,
  "attacks" : 44
 },
 {
  "city" : "Rio de Janeiro",
  "latitude" : -22.908278,
  "longitude" : -43.197026,
  "attacks" : 44
 },
 {
  "city" : "Seiyun",
  "latitude" : 15.964205,
  "longitude" : 48.78252,
  "attacks" : 44
 },
 {
  "city" : "Spin Boldak",
  "latitude" : 31.008056,
  "longitude" : 66.398056,
  "attacks" : 44
 },
 {
  "city" : "Swabi",
  "latitude" : 34.119691,
  "longitude" : 72.469743,
  "attacks" : 44
 },
 {
  "city" : "Yathrib",
  "latitude" : 33.999726,
  "longitude" : 44.36307,
  "attacks" : 44
 },
 {
  "city" : "Ampara district",
  "latitude" : 7.301756,
  "longitude" : 81.67473,
  "attacks" : 43
 },
 {
  "city" : "Cassoalala",
  "latitude" : -9.487515,
  "longitude" : 14.355478,
  "attacks" : 43
 },
 {
  "city" : "Mastung",
  "latitude" : 29.799248,
  "longitude" : 66.84749,
  "attacks" : 43
 },
 {
  "city" : "Musayib",
  "latitude" : 32.778611,
  "longitude" : 44.29,
  "attacks" : 43
 },
 {
  "city" : "New York City",
  "latitude" : 40.712784,
  "longitude" : -74.005941,
  "attacks" : 43
 },
 {
  "city" : "Phnom Penh",
  "latitude" : 11.558831,
  "longitude" : 104.917445,
  "attacks" : 43
 },
 {
  "city" : "Pisky",
  "latitude" : 48.062214,
  "longitude" : 37.680483,
  "attacks" : 43
 },
 {
  "city" : "Shchastya",
  "latitude" : 48.7333,
  "longitude" : 39.2333,
  "attacks" : 43
 },
 {
  "city" : "Sungai Kolok",
  "latitude" : 6.541147,
  "longitude" : 101.280395,
  "attacks" : 43
 },
 {
  "city" : "Alexandria",
  "latitude" : 31.1980556,
  "longitude" : 29.9191667,
  "attacks" : 42
 },
 {
  "city" : "Diwaniyah",
  "latitude" : 31.988807,
  "longitude" : 44.924958,
  "attacks" : 42
 },
 {
  "city" : "Luhansk",
  "latitude" : 48.574041,
  "longitude" : 39.307815,
  "attacks" : 42
 },
 {
  "city" : "Santo Domingo",
  "latitude" : 12.3810495,
  "longitude" : -84.953908,
  "attacks" : 42
 },
 {
  "city" : "Saravena",
  "latitude" : 6.95284,
  "longitude" : -71.87514,
  "attacks" : 42
 },
 {
  "city" : "Tibu",
  "latitude" : 8.63781,
  "longitude" : -72.73464,
  "attacks" : 42
 },
 {
  "city" : "Hub",
  "latitude" : 25.034568,
  "longitude" : 66.883198,
  "attacks" : 41
 },
 {
  "city" : "Icolo e Bengo district",
  "latitude" : -9.251797,
  "longitude" : 14.105072,
  "attacks" : 41
 },
 {
  "city" : "Khar",
  "latitude" : 34.735879,
  "longitude" : 71.525833,
  "attacks" : 41
 },
 {
  "city" : "Porto-Vecchio",
  "latitude" : 41.591369,
  "longitude" : 9.278311,
  "attacks" : 41
 },
 {
  "city" : "Slovyansk",
  "latitude" : 48.854722,
  "longitude" : 37.605556,
  "attacks" : 41
 },
 {
  "city" : "Assiut",
  "latitude" : 27.1827778,
  "longitude" : 31.1827778,
  "attacks" : 40
 },
 {
  "city" : "Darra Adam Khel",
  "latitude" : 33.694454,
  "longitude" : 71.495854,
  "attacks" : 40
 },
 {
  "city" : "Kampala",
  "latitude" : 0.350848,
  "longitude" : 32.580224,
  "attacks" : 40
 },
 {
  "city" : "Kobani",
  "latitude" : 36.88964,
  "longitude" : 38.363984,
  "attacks" : 40
 },
 {
  "city" : "kokrajhar district",
  "latitude" : 26.401436,
  "longitude" : 90.266699,
  "attacks" : 40
 },
 {
  "city" : "Maputo",
  "latitude" : -25.891968,
  "longitude" : 32.605135,
  "attacks" : 40
 },
 {
  "city" : "Nicosia",
  "latitude" : 35.166738,
  "longitude" : 33.36759,
  "attacks" : 40
 },
 {
  "city" : "Santa Ana",
  "latitude" : 33.745573,
  "longitude" : -117.86783,
  "attacks" : 40
 },
 {
  "city" : "Armagh",
  "latitude" : 54.347539,
  "longitude" : -6.656108,
  "attacks" : 39
 },
 {
  "city" : "Giza",
  "latitude" : 30.0086111,
  "longitude" : 31.2122222,
  "attacks" : 39
 },
 {
  "city" : "Jenin",
  "latitude" : 32.461992,
  "longitude" : 35.302462,
  "attacks" : 39
 },
 {
  "city" : "Malkangiri district",
  "latitude" : 18.364195,
  "longitude" : 81.892418,
  "attacks" : 39
 },
 {
  "city" : "Marib",
  "latitude" : 15.47521,
  "longitude" : 45.3296,
  "attacks" : 39
 },
 {
  "city" : "Mattani",
  "latitude" : 33.796424,
  "longitude" : 71.560013,
  "attacks" : 39
 },
 {
  "city" : "Shirqat district",
  "latitude" : 35.493072,
  "longitude" : 43.24237,
  "attacks" : 39
 },
 {
  "city" : "Cizre",
  "latitude" : 37.330592,
  "longitude" : 42.187274,
  "attacks" : 38
 },
 {
  "city" : "Gitega",
  "latitude" : -3.427512,
  "longitude" : 29.924253,
  "attacks" : 38
 },
 {
  "city" : "Isabela",
  "latitude" : 6.704339,
  "longitude" : 121.969328,
  "attacks" : 38
 },
 {
  "city" : "Kidal",
  "latitude" : 18.445298,
  "longitude" : 1.408032,
  "attacks" : 38
 },
 {
  "city" : "Marawi",
  "latitude" : 8.004674,
  "longitude" : 124.2913,
  "attacks" : 38
 },
 {
  "city" : "Multan",
  "latitude" : 30.197843,
  "longitude" : 71.467629,
  "attacks" : 38
 },
 {
  "city" : "Nad Ali district",
  "latitude" : 31.64,
  "longitude" : 64.24,
  "attacks" : 38
 },
 {
  "city" : "Pristina",
  "latitude" : 42.672479,
  "longitude" : 21.163748,
  "attacks" : 38
 },
 {
  "city" : "Qayyarah",
  "latitude" : 35.797349,
  "longitude" : 43.294201,
  "attacks" : 38
 },
 {
  "city" : "Buynaksk",
  "latitude" : 42.816667,
  "longitude" : 47.116667,
  "attacks" : 37
 },
 {
  "city" : "Constantine",
  "latitude" : 36.35,
  "longitude" : 6.6,
  "attacks" : 37
 },
 {
  "city" : "Khanaqin",
  "latitude" : 34.333206,
  "longitude" : 45.383492,
  "attacks" : 37
 },
 {
  "city" : "Khok Pho",
  "latitude" : 6.686475,
  "longitude" : 101.139088,
  "attacks" : 37
 },
 {
  "city" : "Kohlu",
  "latitude" : 29.673863,
  "longitude" : 68.715498,
  "attacks" : 37
 },
 {
  "city" : "Nasirabad",
  "latitude" : 28.458421,
  "longitude" : 68.133223,
  "attacks" : 37
 },
 {
  "city" : "Neiva",
  "latitude" : 2.925561,
  "longitude" : -75.290777,
  "attacks" : 37
 },
 {
  "city" : "San Vicente",
  "latitude" : 13.64121,
  "longitude" : -88.785423,
  "attacks" : 37
 },
 {
  "city" : "Sao Paulo",
  "latitude" : -23.550711,
  "longitude" : -46.633475,
  "attacks" : 37
 },
 {
  "city" : "Avdiivka",
  "latitude" : 48.144444,
  "longitude" : 37.747911,
  "attacks" : 36
 },
 {
  "city" : "Bacho",
  "latitude" : 6.517949,
  "longitude" : 101.653463,
  "attacks" : 36
 },
 {
  "city" : "Bagram",
  "latitude" : 34.944168,
  "longitude" : 69.273331,
  "attacks" : 36
 },
 {
  "city" : "Chandigarh",
  "latitude" : 30.733315,
  "longitude" : 76.779418,
  "attacks" : 36
 },
 {
  "city" : "Gombe",
  "latitude" : -4.303056,
  "longitude" : 15.303333,
  "attacks" : 36
 },
 {
  "city" : "Kalmunai",
  "latitude" : 7.414383,
  "longitude" : 81.830633,
  "attacks" : 36
 },
 {
  "city" : "Odessa",
  "latitude" : 46.484583,
  "longitude" : 30.7326,
  "attacks" : 36
 },
 {
  "city" : "Pretoria",
  "latitude" : -25.746096,
  "longitude" : 28.186455,
  "attacks" : 36
 },
 {
  "city" : "Sirnak",
  "latitude" : 37.517399,
  "longitude" : 42.459851,
  "attacks" : 36
 },
 {
  "city" : "tbilisi",
  "latitude" : 41.709981,
  "longitude" : 44.792998,
  "attacks" : 36
 },
 {
  "city" : "Asadabad",
  "latitude" : 34.874167,
  "longitude" : 71.152778,
  "attacks" : 35
 },
 {
  "city" : "Banda Aceh",
  "latitude" : 5.554139,
  "longitude" : 95.316668,
  "attacks" : 35
 },
 {
  "city" : "Budapest",
  "latitude" : 47.498406,
  "longitude" : 19.040758,
  "attacks" : 35
 },
 {
  "city" : "Callao",
  "latitude" : -12.050934,
  "longitude" : -77.126044,
  "attacks" : 35
 },
 {
  "city" : "Dimapur",
  "latitude" : 25.906267,
  "longitude" : 93.72759,
  "attacks" : 35
 },
 {
  "city" : "Medellin district",
  "latitude" : 6.270526,
  "longitude" : -75.572173,
  "attacks" : 35
 },
 {
  "city" : "Muqur district",
  "latitude" : 32.816136,
  "longitude" : 67.762998,
  "attacks" : 35
 },
 {
  "city" : "San Pedro Sula",
  "latitude" : 15.50167,
  "longitude" : -88.02774,
  "attacks" : 35
 },
 {
  "city" : "Saydabad district",
  "latitude" : 33.929167,
  "longitude" : 68.659722,
  "attacks" : 35
 },
 {
  "city" : "Shahidi Hassas district",
  "latitude" : 32.966616,
  "longitude" : 65.730626,
  "attacks" : 35
 },
 {
  "city" : "Temuco",
  "latitude" : -38.734133,
  "longitude" : -72.584651,
  "attacks" : 35
 },
 {
  "city" : "Warduj district",
  "latitude" : 37.070563,
  "longitude" : 71.143913,
  "attacks" : 35
 },
 {
  "city" : "West Midnapore district",
  "latitude" : 22.404193,
  "longitude" : 87.379866,
  "attacks" : 35
 },
 {
  "city" : "Addis Ababa",
  "latitude" : 8.977146,
  "longitude" : 38.773226,
  "attacks" : 34
 },
 {
  "city" : "Amritsar district",
  "latitude" : 31.633979,
  "longitude" : 74.872264,
  "attacks" : 34
 },
 {
  "city" : "Cologne",
  "latitude" : 50.940664,
  "longitude" : 6.959912,
  "attacks" : 34
 },
 {
  "city" : "Dera Bugti district",
  "latitude" : 29.033858,
  "longitude" : 69.139225,
  "attacks" : 34
 },
 {
  "city" : "Mushahidah",
  "latitude" : 33.635127,
  "longitude" : 44.235481,
  "attacks" : 34
 },
 {
  "city" : "Ordzhonikidzevskaya",
  "latitude" : 43.316667,
  "longitude" : 45.066667,
  "attacks" : 34
 },
 {
  "city" : "Usulutan",
  "latitude" : 13.344322,
  "longitude" : -88.437463,
  "attacks" : 34
 },
 {
  "city" : "Adhaim",
  "latitude" : 34.239965,
  "longitude" : 44.510157,
  "attacks" : 33
 },
 {
  "city" : "Amiriyat al-Fallujah",
  "latitude" : 33.166331,
  "longitude" : 43.865483,
  "attacks" : 33
 },
 {
  "city" : "Barranquilla",
  "latitude" : 10.981412,
  "longitude" : -74.778319,
  "attacks" : 33
 },
 {
  "city" : "Bijapur district",
  "latitude" : 18.791667,
  "longitude" : 80.816667,
  "attacks" : 33
 },
 {
  "city" : "Darjeeling",
  "latitude" : 27.036007,
  "longitude" : 88.262675,
  "attacks" : 33
 },
 {
  "city" : "Dhuluiya",
  "latitude" : 34.071027,
  "longitude" : 44.15838,
  "attacks" : 33
 },
 {
  "city" : "Jos",
  "latitude" : 9.933381,
  "longitude" : 8.885243,
  "attacks" : 33
 },
 {
  "city" : "Mach",
  "latitude" : 29.866252,
  "longitude" : 67.329963,
  "attacks" : 33
 },
 {
  "city" : "Medea",
  "latitude" : 36.266667,
  "longitude" : 2.75,
  "attacks" : 33
 },
 {
  "city" : "Nasiriyah",
  "latitude" : 31.05,
  "longitude" : 46.266667,
  "attacks" : 33
 },
 {
  "city" : "Panjwai district",
  "latitude" : 31.547762,
  "longitude" : 65.454082,
  "attacks" : 33
 },
 {
  "city" : "Pikit",
  "latitude" : 7.054867,
  "longitude" : 124.67262,
  "attacks" : 33
 },
 {
  "city" : "Puli Khumri",
  "latitude" : 35.95,
  "longitude" : 68.7,
  "attacks" : 33
 },
 {
  "city" : "Shariff Aguak",
  "latitude" : 6.867291,
  "longitude" : 124.443559,
  "attacks" : 33
 },
 {
  "city" : "Apopa",
  "latitude" : 13.79833,
  "longitude" : -89.17889,
  "attacks" : 32
 },
 {
  "city" : "Bayda",
  "latitude" : 13.981292,
  "longitude" : 45.573329,
  "attacks" : 32
 },
 {
  "city" : "Bethlehem",
  "latitude" : 31.707868,
  "longitude" : 35.202592,
  "attacks" : 32
 },
 {
  "city" : "General Santos",
  "latitude" : 6.118078,
  "longitude" : 125.172684,
  "attacks" : 32
 },
 {
  "city" : "Hasakah",
  "latitude" : 36.50819,
  "longitude" : 40.745866,
  "attacks" : 32
 },
 {
  "city" : "Ishaqi",
  "latitude" : 34.010257,
  "longitude" : 44.062531,
  "attacks" : 32
 },
 {
  "city" : "Jalawlah",
  "latitude" : 34.273724,
  "longitude" : 45.165803,
  "attacks" : 32
 },
 {
  "city" : "khulna",
  "latitude" : 22.845641,
  "longitude" : 89.540328,
  "attacks" : 32
 },
 {
  "city" : "Lakhdaria",
  "latitude" : 36.562222,
  "longitude" : 3.594444,
  "attacks" : 32
 },
 {
  "city" : "Matta",
  "latitude" : 34.92969,
  "longitude" : 72.416834,
  "attacks" : 32
 },
 {
  "city" : "Radaa",
  "latitude" : 14.416629,
  "longitude" : 44.840234,
  "attacks" : 32
 },
 {
  "city" : "Trincomalee district",
  "latitude" : 8.5922,
  "longitude" : 81.196796,
  "attacks" : 32
 },
 {
  "city" : "Zaragoza",
  "latitude" : 7.491752,
  "longitude" : -74.868183,
  "attacks" : 32
 },
 {
  "city" : "Ajdabiya",
  "latitude" : 30.755556,
  "longitude" : 20.225278,
  "attacks" : 31
 },
 {
  "city" : "Arauca",
  "latitude" : 7.08582,
  "longitude" : -70.75779,
  "attacks" : 31
 },
 {
  "city" : "Ayacucho district",
  "latitude" : -14.31884,
  "longitude" : -74.378173,
  "attacks" : 31
 },
 {
  "city" : "Batman",
  "latitude" : 37.887824,
  "longitude" : 41.13622,
  "attacks" : 31
 },
 {
  "city" : "Dantewada district",
  "latitude" : 18.9,
  "longitude" : 81.35,
  "attacks" : 31
 },
 {
  "city" : "Goma",
  "latitude" : -1.658501,
  "longitude" : 29.220455,
  "attacks" : 31
 },
 {
  "city" : "Guayaquil",
  "latitude" : -2.170832,
  "longitude" : -79.922359,
  "attacks" : 31
 },
 {
  "city" : "Huaraz",
  "latitude" : -9.529924,
  "longitude" : -77.5288,
  "attacks" : 31
 },
 {
  "city" : "Kandy",
  "latitude" : 7.29384,
  "longitude" : 80.640669,
  "attacks" : 31
 },
 {
  "city" : "Katlehong",
  "latitude" : -26.363175,
  "longitude" : 28.15222,
  "attacks" : 31
 },
 {
  "city" : "Lamitan",
  "latitude" : 6.660518,
  "longitude" : 122.138746,
  "attacks" : 31
 },
 {
  "city" : "Mazari Sharif",
  "latitude" : 36.708832,
  "longitude" : 67.110793,
  "attacks" : 31
 },
 {
  "city" : "Qaysar district",
  "latitude" : 35.69206,
  "longitude" : 64.295739,
  "attacks" : 31
 },
 {
  "city" : "rangoon",
  "latitude" : 16.797851,
  "longitude" : 96.15735,
  "attacks" : 31
 },
 {
  "city" : "San Carlos",
  "latitude" : 6.1876,
  "longitude" : -74.99429,
  "attacks" : 31
 },
 {
  "city" : "san jose",
  "latitude" : 5.08414,
  "longitude" : -75.7903,
  "attacks" : 31
 },
 {
  "city" : "Santiago de Maria",
  "latitude" : 13.4833333,
  "longitude" : -88.466667,
  "attacks" : 31
 },
 {
  "city" : "Sarajevo",
  "latitude" : 43.85,
  "longitude" : 18.3833333,
  "attacks" : 31
 },
 {
  "city" : "Sinjar",
  "latitude" : 36.321738,
  "longitude" : 41.865884,
  "attacks" : 31
 },
 {
  "city" : "Sulayman Beg",
  "latitude" : 34.788274,
  "longitude" : 44.667751,
  "attacks" : 31
 },
 {
  "city" : "Tizi Ouzou",
  "latitude" : 36.716365,
  "longitude" : 4.049834,
  "attacks" : 31
 },
 {
  "city" : "Alexandra",
  "latitude" : -26.103533,
  "longitude" : 28.097631,
  "attacks" : 30
 },
 {
  "city" : "Debaltseve",
  "latitude" : 48.333389,
  "longitude" : 38.39983,
  "attacks" : 30
 },
 {
  "city" : "Delhi",
  "latitude" : 28.704059,
  "longitude" : 77.10249,
  "attacks" : 30
 },
 {
  "city" : "Gao",
  "latitude" : 16.273971,
  "longitude" : -0.041066,
  "attacks" : 30
 },
 {
  "city" : "Gwadar",
  "latitude" : 25.129902,
  "longitude" : 62.323222,
  "attacks" : 30
 },
 {
  "city" : "Huanta",
  "latitude" : -12.939782,
  "longitude" : -74.247478,
  "attacks" : 30
 },
 {
  "city" : "Kabal",
  "latitude" : 34.791084,
  "longitude" : 72.283314,
  "attacks" : 30
 },
 {
  "city" : "Khalidiyah",
  "latitude" : 33.38451,
  "longitude" : 43.525147,
  "attacks" : 30
 },
 {
  "city" : "Lagos",
  "latitude" : 6.618911,
  "longitude" : 3.305532,
  "attacks" : 30
 },
 {
  "city" : "Mariupol",
  "latitude" : 47.103063,
  "longitude" : 37.542818,
  "attacks" : 30
 },
 {
  "city" : "Najaf",
  "latitude" : 32.000596,
  "longitude" : 44.330818,
  "attacks" : 30
 },
 {
  "city" : "Netzarim",
  "latitude" : 31.483495,
  "longitude" : 34.450067,
  "attacks" : 30
 },
 {
  "city" : "Panjgur district",
  "latitude" : 26.954908,
  "longitude" : 64.156721,
  "attacks" : 30
 },
 {
  "city" : "Qaim",
  "latitude" : 34.36871,
  "longitude" : 41.094506,
  "attacks" : 30
 },
 {
  "city" : "Rueso",
  "latitude" : 6.381892,
  "longitude" : 101.506227,
  "attacks" : 30
 },
 {
  "city" : "Siniyah",
  "latitude" : 32.503611,
  "longitude" : 44.313056,
  "attacks" : 30
 },
 {
  "city" : "Umlazi",
  "latitude" : -29.965819,
  "longitude" : 30.882976,
  "attacks" : 30
 },
 {
  "city" : "uraba",
  "latitude" : 6.828333,
  "longitude" : -75.513056,
  "attacks" : 30
 },
 {
  "city" : "Amman",
  "latitude" : 31.950001,
  "longitude" : 35.933331,
  "attacks" : 29
 },
 {
  "city" : "Bijapur",
  "latitude" : 18.791667,
  "longitude" : 80.816667,
  "attacks" : 29
 },
 {
  "city" : "Bulobarde",
  "latitude" : 3.8525,
  "longitude" : 45.566109,
  "attacks" : 29
 },
 {
  "city" : "Dantewada",
  "latitude" : 18.9,
  "longitude" : 81.35,
  "attacks" : 29
 },
 {
  "city" : "Dili",
  "latitude" : -8.54966,
  "longitude" : 125.566599,
  "attacks" : 29
 },
 {
  "city" : "Hermel",
  "latitude" : 34.397052,
  "longitude" : 36.387171,
  "attacks" : 29
 },
 {
  "city" : "Horlivka",
  "latitude" : 48.307958,
  "longitude" : 38.031414,
  "attacks" : 29
 },
 {
  "city" : "Kaduna",
  "latitude" : 10.530204,
  "longitude" : 7.437338,
  "attacks" : 29
 },
 {
  "city" : "Khogyani district",
  "latitude" : 34.229213,
  "longitude" : 70.193208,
  "attacks" : 29
 },
 {
  "city" : "Kiev",
  "latitude" : 50.4501,
  "longitude" : 30.5234,
  "attacks" : 29
 },
 {
  "city" : "Logo district",
  "latitude" : 7.689167,
  "longitude" : 9.250278,
  "attacks" : 29
 },
 {
  "city" : "Marjah",
  "latitude" : 31.517771,
  "longitude" : 64.114227,
  "attacks" : 29
 },
 {
  "city" : "Palamu district",
  "latitude" : 24.128611,
  "longitude" : 84.185712,
  "attacks" : 29
 },
 {
  "city" : "Rajshahi",
  "latitude" : 24.366667,
  "longitude" : 88.6,
  "attacks" : 29
 },
 {
  "city" : "Stanytsia Luhanska",
  "latitude" : 48.664949,
  "longitude" : 39.468782,
  "attacks" : 29
 },
 {
  "city" : "Tumaco",
  "latitude" : 1.807411,
  "longitude" : -78.763753,
  "attacks" : 29
 },
 {
  "city" : "Azim",
  "latitude" : 34.289224,
  "longitude" : 44.543094,
  "attacks" : 28
 },
 {
  "city" : "carmen",
  "latitude" : 7.206351,
  "longitude" : 124.795276,
  "attacks" : 28
 },
 {
  "city" : "Cordoba",
  "latitude" : -31.399301,
  "longitude" : -64.182129,
  "attacks" : 28
 },
 {
  "city" : "Cusco",
  "latitude" : -13.531688,
  "longitude" : -71.966924,
  "attacks" : 28
 },
 {
  "city" : "Haifa",
  "latitude" : 32.793921,
  "longitude" : 34.990615,
  "attacks" : 28
 },
 {
  "city" : "Jinotega",
  "latitude" : 13.1307067,
  "longitude" : -85.971684,
  "attacks" : 28
 },
 {
  "city" : "Kalat",
  "latitude" : 29.02161,
  "longitude" : 66.589071,
  "attacks" : 28
 },
 {
  "city" : "Kharkiv",
  "latitude" : 49.9935,
  "longitude" : 36.230383,
  "attacks" : 28
 },
 {
  "city" : "Lisburn",
  "latitude" : 54.510893,
  "longitude" : -6.042726,
  "attacks" : 28
 },
 {
  "city" : "Manama",
  "latitude" : 26.216667,
  "longitude" : 50.583333,
  "attacks" : 28
 },
 {
  "city" : "mannar",
  "latitude" : 8.980118,
  "longitude" : 79.912462,
  "attacks" : 28
 },
 {
  "city" : "Milan",
  "latitude" : 45.463681,
  "longitude" : 9.188171,
  "attacks" : 28
 },
 {
  "city" : "Musayyib",
  "latitude" : 32.775542,
  "longitude" : 44.301356,
  "attacks" : 28
 },
 {
  "city" : "Mutur",
  "latitude" : 8.457907,
  "longitude" : 81.268402,
  "attacks" : 28
 },
 {
  "city" : "Nyala",
  "latitude" : 12.051801,
  "longitude" : 24.880485,
  "attacks" : 28
 },
 {
  "city" : "Pulwama",
  "latitude" : 33.871517,
  "longitude" : 74.89955,
  "attacks" : 28
 },
 {
  "city" : "Rusoh",
  "latitude" : 6.381892,
  "longitude" : 101.506227,
  "attacks" : 28
 },
 {
  "city" : "Sariab",
  "latitude" : 30.073413,
  "longitude" : 66.9891,
  "attacks" : 28
 },
 {
  "city" : "Shindand",
  "latitude" : 33.307049,
  "longitude" : 62.136421,
  "attacks" : 28
 },
 {
  "city" : "Sofia",
  "latitude" : 42.696492,
  "longitude" : 23.326011,
  "attacks" : 28
 },
 {
  "city" : "Tagab district",
  "latitude" : 34.856331,
  "longitude" : 69.649118,
  "attacks" : 28
 },
 {
  "city" : "valencia",
  "latitude" : 39.470239,
  "longitude" : -0.376805,
  "attacks" : 28
 },
 {
  "city" : "Zhari district",
  "latitude" : 31.640278,
  "longitude" : 65.3975,
  "attacks" : 28
 },
 {
  "city" : "Baiji district",
  "latitude" : 34.928807,
  "longitude" : 43.489827,
  "attacks" : 27
 },
 {
  "city" : "Bannu district",
  "latitude" : 32.984995,
  "longitude" : 70.606944,
  "attacks" : 27
 },
 {
  "city" : "Baramulla",
  "latitude" : 34.205141,
  "longitude" : 74.349494,
  "attacks" : 27
 },
 {
  "city" : "Birganj",
  "latitude" : 27.04477,
  "longitude" : 84.867372,
  "attacks" : 27
 },
 {
  "city" : "Ceel Buur",
  "latitude" : 4.683482,
  "longitude" : 46.616667,
  "attacks" : 27
 },
 {
  "city" : "Frankfurt",
  "latitude" : 50.111445,
  "longitude" : 8.680615,
  "attacks" : 27
 },
 {
  "city" : "granada",
  "latitude" : 3.54434,
  "longitude" : -73.70781,
  "attacks" : 27
 },
 {
  "city" : "Huancayo district",
  "latitude" : -12.068306,
  "longitude" : -75.210163,
  "attacks" : 27
 },
 {
  "city" : "Khas Uruzgan district",
  "latitude" : 32.935856,
  "longitude" : 66.689096,
  "attacks" : 27
 },
 {
  "city" : "Mastung district",
  "latitude" : 29.610454,
  "longitude" : 66.922164,
  "attacks" : 27
 },
 {
  "city" : "Mombasa",
  "latitude" : -4.058862,
  "longitude" : 39.670672,
  "attacks" : 27
 },
 {
  "city" : "Mullaitivu",
  "latitude" : 9.267091,
  "longitude" : 80.814248,
  "attacks" : 27
 },
 {
  "city" : "Nong Chik",
  "latitude" : 6.811786,
  "longitude" : 101.184389,
  "attacks" : 27
 },
 {
  "city" : "Qayarah",
  "latitude" : 35.798212,
  "longitude" : 43.293114,
  "attacks" : 27
 },
 {
  "city" : "Ra-ngae",
  "latitude" : 6.254153,
  "longitude" : 101.729605,
  "attacks" : 27
 },
 {
  "city" : "Sagone",
  "latitude" : 42.113828,
  "longitude" : 8.701548,
  "attacks" : 27
 },
 {
  "city" : "San Juan",
  "latitude" : 18.46617,
  "longitude" : -66.106654,
  "attacks" : 27
 },
 {
  "city" : "Sohbatpur",
  "latitude" : 28.51882,
  "longitude" : 68.541111,
  "attacks" : 27
 },
 {
  "city" : "Tank",
  "latitude" : 32.216056,
  "longitude" : 70.382902,
  "attacks" : 27
 },
 {
  "city" : "Tyre",
  "latitude" : 33.272157,
  "longitude" : 35.203278,
  "attacks" : 27
 },
 {
  "city" : "Abu Ghraib district",
  "latitude" : 33.304733,
  "longitude" : 44.132883,
  "attacks" : 26
 },
 {
  "city" : "Al-Baghdadi",
  "latitude" : 33.85,
  "longitude" : 42.55,
  "attacks" : 26
 },
 {
  "city" : "Buenaventura",
  "latitude" : 3.88182,
  "longitude" : -77.07042,
  "attacks" : 26
 },
 {
  "city" : "Dondo",
  "latitude" : -19.611445,
  "longitude" : 34.740903,
  "attacks" : 26
 },
 {
  "city" : "Faiyum",
  "latitude" : 29.308393,
  "longitude" : 30.842839,
  "attacks" : 26
 },
 {
  "city" : "Idlib",
  "latitude" : 35.931816,
  "longitude" : 36.635165,
  "attacks" : 26
 },
 {
  "city" : "Iligan",
  "latitude" : 8.240043,
  "longitude" : 124.244766,
  "attacks" : 26
 },
 {
  "city" : "Maydan Shahr",
  "latitude" : 34.361059,
  "longitude" : 68.840693,
  "attacks" : 26
 },
 {
  "city" : "Mihtarlam",
  "latitude" : 34.667065,
  "longitude" : 70.210865,
  "attacks" : 26
 },
 {
  "city" : "Saiburi",
  "latitude" : 6.717959,
  "longitude" : 101.593027,
  "attacks" : 26
 },
 {
  "city" : "Saqlawiyah",
  "latitude" : 33.394709,
  "longitude" : 43.685239,
  "attacks" : 26
 },
 {
  "city" : "Shahjoy district",
  "latitude" : 32.50281,
  "longitude" : 67.415452,
  "attacks" : 26
 },
 {
  "city" : "Sibi",
  "latitude" : 29.5416,
  "longitude" : 67.875084,
  "attacks" : 26
 },
 {
  "city" : "Valaichchenai",
  "latitude" : 7.921328,
  "longitude" : 81.52467,
  "attacks" : 26
 },
 {
  "city" : "Angeles",
  "latitude" : 15.153002,
  "longitude" : 120.591942,
  "attacks" : 25
 },
 {
  "city" : "Baghlani Jadid district",
  "latitude" : 36.382061,
  "longitude" : 68.724626,
  "attacks" : 25
 },
 {
  "city" : "Beled Hawo",
  "latitude" : 3.927269,
  "longitude" : 41.877426,
  "attacks" : 25
 },
 {
  "city" : "Chennai",
  "latitude" : 13.08268,
  "longitude" : 80.270718,
  "attacks" : 25
 },
 {
  "city" : "Chimbote",
  "latitude" : -9.0634,
  "longitude" : -78.583605,
  "attacks" : 25
 },
 {
  "city" : "Jaffarabad district",
  "latitude" : 28.340071,
  "longitude" : 68.188997,
  "attacks" : 25
 },
 {
  "city" : "Jalandhar",
  "latitude" : 31.326015,
  "longitude" : 75.576183,
  "attacks" : 25
 },
 {
  "city" : "Jezzine",
  "latitude" : 33.541351,
  "longitude" : 35.586215,
  "attacks" : 25
 },
 {
  "city" : "Kech district",
  "latitude" : 26.017778,
  "longitude" : 63.110278,
  "attacks" : 25
 },
 {
  "city" : "Khuzdar district",
  "latitude" : 27.81872,
  "longitude" : 66.659656,
  "attacks" : 25
 },
 {
  "city" : "Lisbon",
  "latitude" : 38.725299,
  "longitude" : -9.150036,
  "attacks" : 25
 },
 {
  "city" : "Lome",
  "latitude" : 6.172553,
  "longitude" : 1.231572,
  "attacks" : 25
 },
 {
  "city" : "Macao",
  "latitude" : 22.192266,
  "longitude" : 113.547631,
  "attacks" : 25
 },
 {
  "city" : "Mongla",
  "latitude" : 22.49422,
  "longitude" : 89.601617,
  "attacks" : 25
 },
 {
  "city" : "Mumbai",
  "latitude" : 19.075984,
  "longitude" : 72.877656,
  "attacks" : 25
 },
 {
  "city" : "Parachinar",
  "latitude" : 33.896729,
  "longitude" : 70.099832,
  "attacks" : 25
 },
 {
  "city" : "Pasni",
  "latitude" : 25.263734,
  "longitude" : 63.468582,
  "attacks" : 25
 },
 {
  "city" : "Pereira",
  "latitude" : 4.814278,
  "longitude" : -75.694558,
  "attacks" : 25
 },
 {
  "city" : "Popayan",
  "latitude" : 2.44186,
  "longitude" : -76.60617,
  "attacks" : 25
 },
 {
  "city" : "Qoryoley",
  "latitude" : 1.787917,
  "longitude" : 44.529197,
  "attacks" : 25
 },
 {
  "city" : "Sabha",
  "latitude" : 27.038028,
  "longitude" : 14.426712,
  "attacks" : 25
 },
 {
  "city" : "Shaar HaNegev regional council",
  "latitude" : 31.510197,
  "longitude" : 34.61757,
  "attacks" : 25
 },
 {
  "city" : "Situbondo, East Java P.",
  "latitude" : -7.705053,
  "longitude" : 113.995279,
  "attacks" : 25
 },
 {
  "city" : "Sukma district",
  "latitude" : 18.391134,
  "longitude" : 81.659273,
  "attacks" : 25
 },
 {
  "city" : "Sulaymaniyah",
  "latitude" : 37.291152,
  "longitude" : 31.768963,
  "attacks" : 25
 },
 {
  "city" : "tame",
  "latitude" : 6.46052,
  "longitude" : -71.72989,
  "attacks" : 25
 },
 {
  "city" : "Tingo Maria",
  "latitude" : -9.297478,
  "longitude" : -75.996312,
  "attacks" : 25
 },
 {
  "city" : "Wajir",
  "latitude" : 1.748781,
  "longitude" : 40.059564,
  "attacks" : 25
 },
 {
  "city" : "Zab",
  "latitude" : 35.272259,
  "longitude" : 43.462072,
  "attacks" : 25
 },
 {
  "city" : "Zaranj",
  "latitude" : 30.96,
  "longitude" : 61.86,
  "attacks" : 25
 },
 {
  "city" : "Arbil",
  "latitude" : 36.191111,
  "longitude" : 44.009167,
  "attacks" : 24
 },
 {
  "city" : "Ashdod",
  "latitude" : 31.803022,
  "longitude" : 34.652292,
  "attacks" : 24
 },
 {
  "city" : "Asuncion",
  "latitude" : -25.282773,
  "longitude" : -57.63561,
  "attacks" : 24
 },
 {
  "city" : "Belgrade",
  "latitude" : 44.8186111,
  "longitude" : 20.4680556,
  "attacks" : 24
 },
 {
  "city" : "Beni",
  "latitude" : 0.499012,
  "longitude" : 29.452754,
  "attacks" : 24
 },
 {
  "city" : "Buni Yadi",
  "latitude" : 11.268889,
  "longitude" : 11.996944,
  "attacks" : 24
 },
 {
  "city" : "Copenhagen",
  "latitude" : 55.676075,
  "longitude" : 12.568316,
  "attacks" : 24
 },
 {
  "city" : "Ghisonaccia",
  "latitude" : 42.016854,
  "longitude" : 9.403982,
  "attacks" : 24
 },
 {
  "city" : "Hat Yai",
  "latitude" : 7.013983,
  "longitude" : 100.471242,
  "attacks" : 24
 },
 {
  "city" : "Huambo",
  "latitude" : -12.765538,
  "longitude" : 15.732861,
  "attacks" : 24
 },
 {
  "city" : "Jaffna district",
  "latitude" : 9.66123,
  "longitude" : 80.02558,
  "attacks" : 24
 },
 {
  "city" : "Jurf al-Sakhar",
  "latitude" : 32.8657,
  "longitude" : 44.21235,
  "attacks" : 24
 },
 {
  "city" : "Jurf al-Sakhr",
  "latitude" : 32.8657,
  "longitude" : 44.21235,
  "attacks" : 24
 },
 {
  "city" : "Kuwait",
  "latitude" : 29.365,
  "longitude" : 48.001389,
  "attacks" : 24
 },
 {
  "city" : "Lurgan",
  "latitude" : 54.467967,
  "longitude" : -6.337967,
  "attacks" : 24
 },
 {
  "city" : "Pusht Rod district",
  "latitude" : 32.480918,
  "longitude" : 62.028239,
  "attacks" : 24
 },
 {
  "city" : "San Isidro",
  "latitude" : 12.9319444,
  "longitude" : -86.195278,
  "attacks" : 24
 },
 {
  "city" : "San Pablo",
  "latitude" : 7.48008,
  "longitude" : -73.92076,
  "attacks" : 24
 },
 {
  "city" : "Suchitoto",
  "latitude" : 13.933732,
  "longitude" : -89.025836,
  "attacks" : 24
 },
 {
  "city" : "Tunceli",
  "latitude" : 39.108722,
  "longitude" : 39.549013,
  "attacks" : 24
 },
 {
  "city" : "Vienna",
  "latitude" : 48.208174,
  "longitude" : 16.373819,
  "attacks" : 24
 },
 {
  "city" : "Warri",
  "latitude" : 5.516704,
  "longitude" : 5.749991,
  "attacks" : 24
 },
 {
  "city" : "Zaidan",
  "latitude" : 33.24529,
  "longitude" : 44.02528,
  "attacks" : 24
 },
 {
  "city" : "Ataq",
  "latitude" : 14.52618,
  "longitude" : 46.844932,
  "attacks" : 23
 },
 {
  "city" : "Baraki Barak district",
  "latitude" : 33.969167,
  "longitude" : 68.944722,
  "attacks" : 23
 },
 {
  "city" : "Bati Kot district",
  "latitude" : 34.245556,
  "longitude" : 70.727222,
  "attacks" : 23
 },
 {
  "city" : "Faisalabad",
  "latitude" : 31.408822,
  "longitude" : 73.083021,
  "attacks" : 23
 },
 {
  "city" : "florencia",
  "latitude" : 1.61456,
  "longitude" : -75.6053,
  "attacks" : 23
 },
 {
  "city" : "Hudur",
  "latitude" : 4.123091,
  "longitude" : 43.890845,
  "attacks" : 23
 },
 {
  "city" : "Jucuapa",
  "latitude" : 13.5166667,
  "longitude" : -88.383333,
  "attacks" : 23
 },
 {
  "city" : "Karabulak",
  "latitude" : 43.299012,
  "longitude" : 44.898869,
  "attacks" : 23
 },
 {
  "city" : "Khan Bani Saad",
  "latitude" : 33.571807,
  "longitude" : 44.536067,
  "attacks" : 23
 },
 {
  "city" : "Konduga",
  "latitude" : 11.651575,
  "longitude" : 13.419429,
  "attacks" : 23
 },
 {
  "city" : "Lalgarh",
  "latitude" : 22.586023,
  "longitude" : 87.051109,
  "attacks" : 23
 },
 {
  "city" : "Lawdar",
  "latitude" : 13.88908,
  "longitude" : 45.870951,
  "attacks" : 23
 },
 {
  "city" : "Malgobek",
  "latitude" : 43.511111,
  "longitude" : 44.6,
  "attacks" : 23
 },
 {
  "city" : "Mand",
  "latitude" : 32.888165,
  "longitude" : 74.985168,
  "attacks" : 23
 },
 {
  "city" : "Marawara district",
  "latitude" : 34.89,
  "longitude" : 71.18,
  "attacks" : 23
 },
 {
  "city" : "Marseilles",
  "latitude" : 43.296482,
  "longitude" : 5.36978,
  "attacks" : 23
 },
 {
  "city" : "Montevideo",
  "latitude" : -34.891151,
  "longitude" : -56.187214,
  "attacks" : 23
 },
 {
  "city" : "Muang district",
  "latitude" : 6.541706,
  "longitude" : 101.283465,
  "attacks" : 23
 },
 {
  "city" : "Nusaybin",
  "latitude" : 37.089994,
  "longitude" : 41.212628,
  "attacks" : 23
 },
 {
  "city" : "Sai Buri district",
  "latitude" : 6.681318,
  "longitude" : 101.58734,
  "attacks" : 23
 },
 {
  "city" : "San Rafael cedros",
  "latitude" : 13.7333333,
  "longitude" : -88.883333,
  "attacks" : 23
 },
 {
  "city" : "Stockholm",
  "latitude" : 59.332788,
  "longitude" : 18.064488,
  "attacks" : 23
 },
 {
  "city" : "Taza Khurmatu",
  "latitude" : 35.29915,
  "longitude" : 44.327279,
  "attacks" : 23
 },
 {
  "city" : "Trujillo",
  "latitude" : -8.111825,
  "longitude" : -79.02866,
  "attacks" : 23
 },
 {
  "city" : "Welioya",
  "latitude" : 8.964041,
  "longitude" : 80.787941,
  "attacks" : 23
 },
 {
  "city" : "Achin district",
  "latitude" : 34.08218,
  "longitude" : 70.667035,
  "attacks" : 22
 },
 {
  "city" : "Amarah",
  "latitude" : 31.837472,
  "longitude" : 47.15104,
  "attacks" : 22
 },
 {
  "city" : "Anuradhapura",
  "latitude" : 8.345185,
  "longitude" : 80.388133,
  "attacks" : 22
 },
 {
  "city" : "Beersheba",
  "latitude" : 31.252973,
  "longitude" : 34.791462,
  "attacks" : 22
 },
 {
  "city" : "Bouira",
  "latitude" : 36.38066,
  "longitude" : 3.897115,
  "attacks" : 22
 },
 {
  "city" : "Chora district",
  "latitude" : 32.847222,
  "longitude" : 66.05,
  "attacks" : 22
 },
 {
  "city" : "Corte",
  "latitude" : 42.309409,
  "longitude" : 9.149022,
  "attacks" : 22
 },
 {
  "city" : "Deh Rahwod district",
  "latitude" : 32.640755,
  "longitude" : 65.570785,
  "attacks" : 22
 },
 {
  "city" : "Dibis",
  "latitude" : 35.669381,
  "longitude" : 44.081777,
  "attacks" : 22
 },
 {
  "city" : "Dublin",
  "latitude" : 53.344104,
  "longitude" : -6.267494,
  "attacks" : 22
 },
 {
  "city" : "Huancavelica",
  "latitude" : -12.787148,
  "longitude" : -74.973207,
  "attacks" : 22
 },
 {
  "city" : "Khartoum",
  "latitude" : 15.500747,
  "longitude" : 32.560083,
  "attacks" : 22
 },
 {
  "city" : "Kupwara",
  "latitude" : 34.526179,
  "longitude" : 74.254614,
  "attacks" : 22
 },
 {
  "city" : "lusaka",
  "latitude" : -15.415393,
  "longitude" : 28.284354,
  "attacks" : 22
 },
 {
  "city" : "Mahawil",
  "latitude" : 32.661036,
  "longitude" : 44.407655,
  "attacks" : 22
 },
 {
  "city" : "Malkangiri",
  "latitude" : 18.364195,
  "longitude" : 81.892418,
  "attacks" : 22
 },
 {
  "city" : "Piraeus",
  "latitude" : 37.942843,
  "longitude" : 23.646916,
  "attacks" : 22
 },
 {
  "city" : "Poso",
  "latitude" : -1.393147,
  "longitude" : 120.754749,
  "attacks" : 22
 },
 {
  "city" : "Raman district",
  "latitude" : 6.491822,
  "longitude" : 101.3885,
  "attacks" : 22
 },
 {
  "city" : "Shah Wali Kot district",
  "latitude" : 32.074078,
  "longitude" : 66.141526,
  "attacks" : 22
 },
 {
  "city" : "Shopian",
  "latitude" : 33.717003,
  "longitude" : 74.836092,
  "attacks" : 22
 },
 {
  "city" : "Skopje",
  "latitude" : 42.000273,
  "longitude" : 21.432541,
  "attacks" : 22
 },
 {
  "city" : "Sungai Padi",
  "latitude" : 6.166706,
  "longitude" : 101.911987,
  "attacks" : 22
 },
 {
  "city" : "Sylhet",
  "latitude" : 24.90049,
  "longitude" : 91.881015,
  "attacks" : 22
 },
 {
  "city" : "Thokoza",
  "latitude" : -26.353159,
  "longitude" : 28.132727,
  "attacks" : 22
 },
 {
  "city" : "Tulkarem",
  "latitude" : 32.311973,
  "longitude" : 35.026603,
  "attacks" : 22
 },
 {
  "city" : "Turbo",
  "latitude" : 8.09242,
  "longitude" : -76.72738,
  "attacks" : 22
 },
 {
  "city" : "Vavuniya district",
  "latitude" : 8.73865,
  "longitude" : 80.47795,
  "attacks" : 22
 },
 {
  "city" : "Alingar district",
  "latitude" : 34.824077,
  "longitude" : 70.360692,
  "attacks" : 21
 },
 {
  "city" : "Baalbek",
  "latitude" : 34.004689,
  "longitude" : 36.21104,
  "attacks" : 21
 },
 {
  "city" : "Barpeta district",
  "latitude" : 26.329008,
  "longitude" : 91.005433,
  "attacks" : 21
 },
 {
  "city" : "Bashir",
  "latitude" : 35.241904,
  "longitude" : 44.270954,
  "attacks" : 21
 },
 {
  "city" : "Buner district",
  "latitude" : 34.396497,
  "longitude" : 72.615832,
  "attacks" : 21
 },
 {
  "city" : "Crossmaglen",
  "latitude" : 54.077313,
  "longitude" : -6.608787,
  "attacks" : 21
 },
 {
  "city" : "Damboa",
  "latitude" : 11.149288,
  "longitude" : 12.756636,
  "attacks" : 21
 },
 {
  "city" : "Datta Khel",
  "latitude" : 32.906013,
  "longitude" : 69.748012,
  "attacks" : 21
 },
 {
  "city" : "Delaram",
  "latitude" : 32.163668,
  "longitude" : 63.423727,
  "attacks" : 21
 },
 {
  "city" : "Dir",
  "latitude" : 35.202293,
  "longitude" : 71.873006,
  "attacks" : 21
 },
 {
  "city" : "Dulce Nombre de Maria",
  "latitude" : 14.15695,
  "longitude" : -89.011475,
  "attacks" : 21
 },
 {
  "city" : "Gulu",
  "latitude" : 2.771679,
  "longitude" : 32.288421,
  "attacks" : 21
 },
 {
  "city" : "Kadugli",
  "latitude" : 11.008682,
  "longitude" : 29.715323,
  "attacks" : 21
 },
 {
  "city" : "Karbi Anglong district",
  "latitude" : 26.001459,
  "longitude" : 93.499242,
  "attacks" : 21
 },
 {
  "city" : "Kilinochchi",
  "latitude" : 9.380289,
  "longitude" : 80.377,
  "attacks" : 21
 },
 {
  "city" : "Kinshasa",
  "latitude" : -4.324639,
  "longitude" : 15.322157,
  "attacks" : 21
 },
 {
  "city" : "Mandali",
  "latitude" : 33.747758,
  "longitude" : 45.552322,
  "attacks" : 21
 },
 {
  "city" : "Minya",
  "latitude" : 28.097438,
  "longitude" : 30.756499,
  "attacks" : 21
 },
 {
  "city" : "Nepalganj",
  "latitude" : 28.050386,
  "longitude" : 81.616685,
  "attacks" : 21
 },
 {
  "city" : "Portadown",
  "latitude" : 54.42071,
  "longitude" : -6.443767,
  "attacks" : 21
 },
 {
  "city" : "Puerto Asis",
  "latitude" : 0.49765,
  "longitude" : -76.49768,
  "attacks" : 21
 },
 {
  "city" : "Quilali",
  "latitude" : 13.564251,
  "longitude" : -86.02984,
  "attacks" : 21
 },
 {
  "city" : "Rajouri",
  "latitude" : 33.371715,
  "longitude" : 74.315313,
  "attacks" : 21
 },
 {
  "city" : "Rangae",
  "latitude" : 6.254153,
  "longitude" : 101.729605,
  "attacks" : 21
 },
 {
  "city" : "Santa Cruz",
  "latitude" : -17.783219,
  "longitude" : -63.182042,
  "attacks" : 21
 },
 {
  "city" : "Santa tecla",
  "latitude" : 13.6769444,
  "longitude" : -89.279722,
  "attacks" : 21
 },
 {
  "city" : "Spin Boldak district",
  "latitude" : 31.007976,
  "longitude" : 66.398483,
  "attacks" : 21
 },
 {
  "city" : "Tetovo",
  "latitude" : 42.008513,
  "longitude" : 20.974305,
  "attacks" : 21
 },
 {
  "city" : "Timbuktu",
  "latitude" : 16.77532,
  "longitude" : -3.008265,
  "attacks" : 21
 },
 {
  "city" : "Toledo",
  "latitude" : 41.65381,
  "longitude" : -83.536259,
  "attacks" : 21
 },
 {
  "city" : "Vladikavkaz",
  "latitude" : 42.9967774,
  "longitude" : 44.6767407,
  "attacks" : 21
 },
 {
  "city" : "Ad Dali",
  "latitude" : 13.700834,
  "longitude" : 44.731569,
  "attacks" : 20
 },
 {
  "city" : "Amsterdam",
  "latitude" : 52.370216,
  "longitude" : 4.895168,
  "attacks" : 20
 },
 {
  "city" : "Baksan",
  "latitude" : 43.6825,
  "longitude" : 43.533889,
  "attacks" : 20
 },
 {
  "city" : "batala",
  "latitude" : 31.8186,
  "longitude" : 75.2028,
  "attacks" : 20
 },
 {
  "city" : "Bolan district",
  "latitude" : 29.215465,
  "longitude" : 67.92444,
  "attacks" : 20
 },
 {
  "city" : "Boumerds",
  "latitude" : 36.76029,
  "longitude" : 3.472395,
  "attacks" : 20
 },
 {
  "city" : "Charbagh",
  "latitude" : 34.835294,
  "longitude" : 72.441886,
  "attacks" : 20
 },
 {
  "city" : "Chattar",
  "latitude" : 28.490733,
  "longitude" : 65.095779,
  "attacks" : 20
 },
 {
  "city" : "Chlef",
  "latitude" : 36.16525,
  "longitude" : 1.33452,
  "attacks" : 20
 },
 {
  "city" : "Gadchiroli district",
  "latitude" : 20.181843,
  "longitude" : 80.006844,
  "attacks" : 20
 },
 {
  "city" : "Gaya",
  "latitude" : 24.795821,
  "longitude" : 85.00252,
  "attacks" : 20
 },
 {
  "city" : "Gilgit",
  "latitude" : 35.918091,
  "longitude" : 74.289803,
  "attacks" : 20
 },
 {
  "city" : "Gujranwala",
  "latitude" : 32.156489,
  "longitude" : 74.187658,
  "attacks" : 20
 },
 {
  "city" : "Hamamiyat",
  "latitude" : 33.511963,
  "longitude" : 44.217203,
  "attacks" : 20
 },
 {
  "city" : "Khemis Miliana",
  "latitude" : 36.266667,
  "longitude" : 2.216667,
  "attacks" : 20
 },
 {
  "city" : "Khunti district",
  "latitude" : 23.075278,
  "longitude" : 85.278889,
  "attacks" : 20
 },
 {
  "city" : "Kurunegala district",
  "latitude" : 7.488566,
  "longitude" : 80.365159,
  "attacks" : 20
 },
 {
  "city" : "Loti",
  "latitude" : 28.958596,
  "longitude" : 69.393981,
  "attacks" : 20
 },
 {
  "city" : "Maymana",
  "latitude" : 35.91784,
  "longitude" : 64.775515,
  "attacks" : 20
 },
 {
  "city" : "Miami",
  "latitude" : 25.764367,
  "longitude" : -80.201529,
  "attacks" : 20
 },
 {
  "city" : "Midsayap",
  "latitude" : 7.19479,
  "longitude" : 124.53475,
  "attacks" : 20
 },
 {
  "city" : "Misrata",
  "latitude" : 32.374298,
  "longitude" : 15.09492,
  "attacks" : 20
 },
 {
  "city" : "Popasna",
  "latitude" : 48.640971,
  "longitude" : 38.377872,
  "attacks" : 20
 },
 {
  "city" : "Rueso district",
  "latitude" : 6.394722,
  "longitude" : 101.518333,
  "attacks" : 20
 },
 {
  "city" : "Santa Marta",
  "latitude" : 11.241991,
  "longitude" : -74.205384,
  "attacks" : 20
 },
 {
  "city" : "Santa Rosa",
  "latitude" : 1.700854,
  "longitude" : -76.572882,
  "attacks" : 20
 },
 {
  "city" : "Sixth of October",
  "latitude" : 29.94482,
  "longitude" : 30.908806,
  "attacks" : 20
 },
 {
  "city" : "Sungai Padi district",
  "latitude" : 6.166706,
  "longitude" : 101.911987,
  "attacks" : 20
 },
 {
  "city" : "Zahedan",
  "latitude" : 29.495551,
  "longitude" : 60.862729,
  "attacks" : 20
 },
 {
  "city" : "Abu Sayda",
  "latitude" : 33.927271,
  "longitude" : 44.773299,
  "attacks" : 19
 },
 {
  "city" : "Ampara",
  "latitude" : 7.301756,
  "longitude" : 81.67473,
  "attacks" : 19
 },
 {
  "city" : "Arauquita",
  "latitude" : 7.027345,
  "longitude" : -71.428555,
  "attacks" : 19
 },
 {
  "city" : "Baku",
  "latitude" : 40.43495,
  "longitude" : 49.867623,
  "attacks" : 19
 },
 {
  "city" : "Bakwa district",
  "latitude" : 32.230825,
  "longitude" : 62.920592,
  "attacks" : 19
 },
 {
  "city" : "Balad district",
  "latitude" : 33.970698,
  "longitude" : 44.043274,
  "attacks" : 19
 },
 {
  "city" : "Bannang Sata district",
  "latitude" : 6.265556,
  "longitude" : 101.263056,
  "attacks" : 19
 },
 {
  "city" : "Bijbehara",
  "latitude" : 33.792909,
  "longitude" : 75.103907,
  "attacks" : 19
 },
 {
  "city" : "Bombay",
  "latitude" : 19.075984,
  "longitude" : 72.877656,
  "attacks" : 19
 },
 {
  "city" : "Bongaigaon",
  "latitude" : 26.48,
  "longitude" : 90.56,
  "attacks" : 19
 },
 {
  "city" : "Boufarik",
  "latitude" : 36.57412,
  "longitude" : 2.91214,
  "attacks" : 19
 },
 {
  "city" : "Dadaab",
  "latitude" : 0.05166,
  "longitude" : 40.308795,
  "attacks" : 19
 },
 {
  "city" : "Dalton",
  "latitude" : -29.340513,
  "longitude" : 30.630557,
  "attacks" : 19
 },
 {
  "city" : "Datu Piang",
  "latitude" : 7.03147,
  "longitude" : 124.502671,
  "attacks" : 19
 },
 {
  "city" : "Dera Allah Yar",
  "latitude" : 28.36995,
  "longitude" : 68.345008,
  "attacks" : 19
 },
 {
  "city" : "Derbent",
  "latitude" : 42.053479,
  "longitude" : 48.298928,
  "attacks" : 19
 },
 {
  "city" : "Doda district",
  "latitude" : 33.14575,
  "longitude" : 75.548049,
  "attacks" : 19
 },
 {
  "city" : "Haswah",
  "latitude" : 32.878436,
  "longitude" : 44.387399,
  "attacks" : 19
 },
 {
  "city" : "Irun",
  "latitude" : 43.338233,
  "longitude" : -1.789272,
  "attacks" : 19
 },
 {
  "city" : "Jalrez district",
  "latitude" : 34.474128,
  "longitude" : 68.639484,
  "attacks" : 19
 },
 {
  "city" : "Jessore",
  "latitude" : 23.163957,
  "longitude" : 89.213004,
  "attacks" : 19
 },
 {
  "city" : "Jowhar",
  "latitude" : 2.779319,
  "longitude" : 45.502056,
  "attacks" : 19
 },
 {
  "city" : "Lhokseumawe",
  "latitude" : 5.183798,
  "longitude" : 97.141575,
  "attacks" : 19
 },
 {
  "city" : "Mitrovica",
  "latitude" : 42.880888,
  "longitude" : 20.867213,
  "attacks" : 19
 },
 {
  "city" : "nice",
  "latitude" : 43.696036,
  "longitude" : 7.265592,
  "attacks" : 19
 },
 {
  "city" : "Nong Chik district",
  "latitude" : 6.800925,
  "longitude" : 101.151444,
  "attacks" : 19
 },
 {
  "city" : "North Cachar Hills district",
  "latitude" : 25.523766,
  "longitude" : 93.096719,
  "attacks" : 19
 },
 {
  "city" : "Oran",
  "latitude" : 35.696944,
  "longitude" : -0.633056,
  "attacks" : 19
 },
 {
  "city" : "Pashtun Kot district",
  "latitude" : 35.905116,
  "longitude" : 64.818013,
  "attacks" : 19
 },
 {
  "city" : "Renteria",
  "latitude" : 43.311307,
  "longitude" : -1.900896,
  "attacks" : 19
 },
 {
  "city" : "Rutba",
  "latitude" : 33.03793,
  "longitude" : 40.284293,
  "attacks" : 19
 },
 {
  "city" : "Sadda",
  "latitude" : 33.70613,
  "longitude" : 70.328641,
  "attacks" : 19
 },
 {
  "city" : "Samarra district",
  "latitude" : 34.224577,
  "longitude" : 43.915933,
  "attacks" : 19
 },
 {
  "city" : "Sdot Negev regional council",
  "latitude" : 31.39708,
  "longitude" : 34.555231,
  "attacks" : 19
 },
 {
  "city" : "Sebokeng",
  "latitude" : -26.574288,
  "longitude" : 27.840764,
  "attacks" : 19
 },
 {
  "city" : "Sumisip",
  "latitude" : 6.420191,
  "longitude" : 121.971633,
  "attacks" : 19
 },
 {
  "city" : "Taipei",
  "latitude" : 25.091075,
  "longitude" : 121.559834,
  "attacks" : 19
 },
 {
  "city" : "The Hague",
  "latitude" : 52.069858,
  "longitude" : 4.291111,
  "attacks" : 19
 },
 {
  "city" : "Tump",
  "latitude" : 26.101636,
  "longitude" : 62.368768,
  "attacks" : 19
 },
 {
  "city" : "Wiwili",
  "latitude" : 13.62679,
  "longitude" : -85.8254,
  "attacks" : 19
 },
 {
  "city" : "Yaha",
  "latitude" : 6.477408,
  "longitude" : 101.135293,
  "attacks" : 19
 },
 {
  "city" : "Abuja",
  "latitude" : 9.066547,
  "longitude" : 7.483243,
  "attacks" : 18
 },
 {
  "city" : "Ain al-Hilweh",
  "latitude" : 33.542385,
  "longitude" : 35.37912,
  "attacks" : 18
 },
 {
  "city" : "Ain Defla",
  "latitude" : 36.266667,
  "longitude" : 1.966667,
  "attacks" : 18
 },
 {
  "city" : "Almar district",
  "latitude" : 35.85635,
  "longitude" : 64.537682,
  "attacks" : 18
 },
 {
  "city" : "Amran",
  "latitude" : 15.659191,
  "longitude" : 43.946539,
  "attacks" : 18
 },
 {
  "city" : "Arequipa",
  "latitude" : -16.409501,
  "longitude" : -71.537384,
  "attacks" : 18
 },
 {
  "city" : "Ballymena",
  "latitude" : 54.863117,
  "longitude" : -6.278343,
  "attacks" : 18
 },
 {
  "city" : "Bangalore",
  "latitude" : 13.00807,
  "longitude" : 77.570329,
  "attacks" : 18
 },
 {
  "city" : "Bishnupur",
  "latitude" : 24.628724,
  "longitude" : 93.761325,
  "attacks" : 18
 },
 {
  "city" : "Brahmanbaria",
  "latitude" : 23.967117,
  "longitude" : 91.111965,
  "attacks" : 18
 },
 {
  "city" : "Cebu City",
  "latitude" : 10.294671,
  "longitude" : 123.899858,
  "attacks" : 18
 },
 {
  "city" : "Chahar Dara district",
  "latitude" : 36.694511,
  "longitude" : 68.801575,
  "attacks" : 18
 },
 {
  "city" : "Corinto",
  "latitude" : 13.818333,
  "longitude" : -87.971389,
  "attacks" : 18
 },
 {
  "city" : "Dali",
  "latitude" : 13.696667,
  "longitude" : 44.730833,
  "attacks" : 18
 },
 {
  "city" : "Eravur",
  "latitude" : 7.775413,
  "longitude" : 81.606247,
  "attacks" : 18
 },
 {
  "city" : "Florida",
  "latitude" : 3.322222,
  "longitude" : -76.234722,
  "attacks" : 18
 },
 {
  "city" : "Gwoza",
  "latitude" : 11.089722,
  "longitude" : 13.688376,
  "attacks" : 18
 },
 {
  "city" : "Hanover",
  "latitude" : 52.372068,
  "longitude" : 9.735686,
  "attacks" : 18
 },
 {
  "city" : "Havana",
  "latitude" : 23.1319444,
  "longitude" : -82.364167,
  "attacks" : 18
 },
 {
  "city" : "Hudaydah",
  "latitude" : 15.554965,
  "longitude" : 48.1728,
  "attacks" : 18
 },
 {
  "city" : "Injil district",
  "latitude" : 34.301389,
  "longitude" : 62.246389,
  "attacks" : 18
 },
 {
  "city" : "Khairpur",
  "latitude" : 27.528896,
  "longitude" : 68.759819,
  "attacks" : 18
 },
 {
  "city" : "Khaki Safed district",
  "latitude" : 32.677851,
  "longitude" : 61.981391,
  "attacks" : 18
 },
 {
  "city" : "Khash Rod district",
  "latitude" : 31.622827,
  "longitude" : 62.869366,
  "attacks" : 18
 },
 {
  "city" : "Kidapawan",
  "latitude" : 7.00833,
  "longitude" : 125.08944,
  "attacks" : 18
 },
 {
  "city" : "Koraput district",
  "latitude" : 18.815236,
  "longitude" : 82.712102,
  "attacks" : 18
 },
 {
  "city" : "Kuchlak",
  "latitude" : 30.360471,
  "longitude" : 66.950891,
  "attacks" : 18
 },
 {
  "city" : "Kwamashu",
  "latitude" : -29.75086,
  "longitude" : 30.983353,
  "attacks" : 18
 },
 {
  "city" : "Mannar district",
  "latitude" : 8.980118,
  "longitude" : 79.912462,
  "attacks" : 18
 },
 {
  "city" : "Midyat",
  "latitude" : 37.415668,
  "longitude" : 41.371505,
  "attacks" : 18
 },
 {
  "city" : "Munich",
  "latitude" : 48.139126,
  "longitude" : 11.580186,
  "attacks" : 18
 },
 {
  "city" : "Nari district",
  "latitude" : 35.225369,
  "longitude" : 71.528625,
  "attacks" : 18
 },
 {
  "city" : "Naw Zad district",
  "latitude" : 32.400023,
  "longitude" : 64.431892,
  "attacks" : 18
 },
 {
  "city" : "Nawa-i-Barakzayi district",
  "latitude" : 31.389315,
  "longitude" : 64.315166,
  "attacks" : 18
 },
 {
  "city" : "Nejapa",
  "latitude" : 13.808917,
  "longitude" : -89.228637,
  "attacks" : 18
 },
 {
  "city" : "Netanya",
  "latitude" : 32.325073,
  "longitude" : 34.854663,
  "attacks" : 18
 },
 {
  "city" : "Nushki",
  "latitude" : 29.551957,
  "longitude" : 66.019326,
  "attacks" : 18
 },
 {
  "city" : "Patikul",
  "latitude" : 6.089318,
  "longitude" : 121.105546,
  "attacks" : 18
 },
 {
  "city" : "Rangae district",
  "latitude" : 6.296389,
  "longitude" : 101.728333,
  "attacks" : 18
 },
 {
  "city" : "Shorah",
  "latitude" : 35.992567,
  "longitude" : 43.218238,
  "attacks" : 18
 },
 {
  "city" : "Tak Bai district",
  "latitude" : 6.258889,
  "longitude" : 102.055,
  "attacks" : 18
 },
 {
  "city" : "Urus-Martan",
  "latitude" : 43.133333,
  "longitude" : 45.55,
  "attacks" : 18
 },
 {
  "city" : "villavicencio",
  "latitude" : 4.15127,
  "longitude" : -73.63872,
  "attacks" : 18
 },
 {
  "city" : "Windhoek",
  "latitude" : -22.567335,
  "longitude" : 17.083271,
  "attacks" : 18
 },
 {
  "city" : "Yarang district",
  "latitude" : 6.760378,
  "longitude" : 101.293634,
  "attacks" : 18
 },
 {
  "city" : "Abu Qurqas",
  "latitude" : 27.9308333,
  "longitude" : 30.8363889,
  "attacks" : 17
 },
 {
  "city" : "Antrim",
  "latitude" : 54.713382,
  "longitude" : -6.216761,
  "attacks" : 17
 },
 {
  "city" : "Arghandab",
  "latitude" : 31.650027,
  "longitude" : 65.650018,
  "attacks" : 17
 },
 {
  "city" : "Bardere",
  "latitude" : 2.333333,
  "longitude" : 42.283333,
  "attacks" : 17
 },
 {
  "city" : "Bokaro district",
  "latitude" : 23.669296,
  "longitude" : 86.151112,
  "attacks" : 17
 },
 {
  "city" : "Bremen",
  "latitude" : 53.074981,
  "longitude" : 8.807081,
  "attacks" : 17
 },
 {
  "city" : "Chalatenango",
  "latitude" : 14.04111,
  "longitude" : -88.938568,
  "attacks" : 17
 },
 {
  "city" : "Chiclayo",
  "latitude" : -6.774056,
  "longitude" : -79.843559,
  "attacks" : 17
 },
 {
  "city" : "Ciudad Barrios",
  "latitude" : 13.7666667,
  "longitude" : -88.266667,
  "attacks" : 17
 },
 {
  "city" : "Cizre district",
  "latitude" : 37.379164,
  "longitude" : 42.350445,
  "attacks" : 17
 },
 {
  "city" : "Dih Yak district",
  "latitude" : 33.471867,
  "longitude" : 68.648365,
  "attacks" : 17
 },
 {
  "city" : "Erez",
  "latitude" : 31.558212,
  "longitude" : 34.543305,
  "attacks" : 17
 },
 {
  "city" : "Giridih district",
  "latitude" : 24.179793,
  "longitude" : 86.306772,
  "attacks" : 17
 },
 {
  "city" : "Harare",
  "latitude" : -17.825166,
  "longitude" : 31.03351,
  "attacks" : 17
 },
 {
  "city" : "Jaar",
  "latitude" : 13.218106,
  "longitude" : 45.305628,
  "attacks" : 17
 },
 {
  "city" : "Kramatorsk",
  "latitude" : 48.728194,
  "longitude" : 37.573184,
  "attacks" : 17
 },
 {
  "city" : "Lakki Marwat",
  "latitude" : 32.601494,
  "longitude" : 70.915691,
  "attacks" : 17
 },
 {
  "city" : "Larkana",
  "latitude" : 27.562461,
  "longitude" : 68.21254,
  "attacks" : 17
 },
 {
  "city" : "Limassol",
  "latitude" : 34.707332,
  "longitude" : 33.023397,
  "attacks" : 17
 },
 {
  "city" : "Manchester",
  "latitude" : 38.59286,
  "longitude" : -90.510679,
  "attacks" : 17
 },
 {
  "city" : "Morghab district",
  "latitude" : 35.5938,
  "longitude" : 63.335419,
  "attacks" : 17
 },
 {
  "city" : "Mubi",
  "latitude" : 10.266667,
  "longitude" : 13.266667,
  "attacks" : 17
 },
 {
  "city" : "Muxungue",
  "latitude" : -20.32727,
  "longitude" : 33.885775,
  "attacks" : 17
 },
 {
  "city" : "Nasirabad district",
  "latitude" : 28.587601,
  "longitude" : 68.047751,
  "attacks" : 17
 },
 {
  "city" : "Nijrab district",
  "latitude" : 34.975242,
  "longitude" : 69.573279,
  "attacks" : 17
 },
 {
  "city" : "Palmira",
  "latitude" : 3.529901,
  "longitude" : -76.298006,
  "attacks" : 17
 },
 {
  "city" : "Palmyra",
  "latitude" : 34.547951,
  "longitude" : 38.278671,
  "attacks" : 17
 },
 {
  "city" : "Qatn",
  "latitude" : 15.84207,
  "longitude" : 48.462624,
  "attacks" : 17
 },
 {
  "city" : "Quezaltepeque",
  "latitude" : 13.835,
  "longitude" : -89.274444,
  "attacks" : 17
 },
 {
  "city" : "Rashad",
  "latitude" : 35.135849,
  "longitude" : 44.087712,
  "attacks" : 17
 },
 {
  "city" : "Riga",
  "latitude" : 56.946203,
  "longitude" : 24.104287,
  "attacks" : 17
 },
 {
  "city" : "Sangin",
  "latitude" : 32.073333,
  "longitude" : 64.833889,
  "attacks" : 17
 },
 {
  "city" : "Semdinli",
  "latitude" : 37.303442,
  "longitude" : 44.57696,
  "attacks" : 17
 },
 {
  "city" : "Shaykh Uthman",
  "latitude" : 12.862619,
  "longitude" : 44.990639,
  "attacks" : 17
 },
 {
  "city" : "silvan",
  "latitude" : 38.141497,
  "longitude" : 41.011491,
  "attacks" : 17
 },
 {
  "city" : "sukhumi",
  "latitude" : 43.00732,
  "longitude" : 40.989151,
  "attacks" : 17
 },
 {
  "city" : "Tank district",
  "latitude" : 32.214179,
  "longitude" : 70.38468,
  "attacks" : 17
 },
 {
  "city" : "Thenia",
  "latitude" : 36.727778,
  "longitude" : 3.553889,
  "attacks" : 17
 },
 {
  "city" : "Toribio",
  "latitude" : 2.95485,
  "longitude" : -76.26825,
  "attacks" : 17
 },
 {
  "city" : "Tulua",
  "latitude" : 4.085809,
  "longitude" : -76.197188,
  "attacks" : 17
 },
 {
  "city" : "Wadh",
  "latitude" : 27.340505,
  "longitude" : 66.370608,
  "attacks" : 17
 },
 {
  "city" : "Wajihiyah",
  "latitude" : 33.95,
  "longitude" : 44.983333,
  "attacks" : 17
 },
 {
  "city" : "Yuksekova district",
  "latitude" : 37.562515,
  "longitude" : 44.293677,
  "attacks" : 17
 },
 {
  "city" : "Abidjan",
  "latitude" : 5.316667,
  "longitude" : -4.033333,
  "attacks" : 16
 },
 {
  "city" : "Aguelhoc",
  "latitude" : 19.464729,
  "longitude" : 0.854815,
  "attacks" : 16
 },
 {
  "city" : "Baghlia",
  "latitude" : 36.81694,
  "longitude" : 3.85722,
  "attacks" : 16
 },
 {
  "city" : "Bama",
  "latitude" : 11.518889,
  "longitude" : 13.684167,
  "attacks" : 16
 },
 {
  "city" : "Biratnagar",
  "latitude" : 26.453406,
  "longitude" : 87.278482,
  "attacks" : 16
 },
 {
  "city" : "Carhuanca",
  "latitude" : -13.755419,
  "longitude" : -73.78756,
  "attacks" : 16
 },
 {
  "city" : "Chapa Dara district",
  "latitude" : 34.951617,
  "longitude" : 70.761357,
  "attacks" : 16
 },
 {
  "city" : "Chaparhar district",
  "latitude" : 34.328977,
  "longitude" : 70.407486,
  "attacks" : 16
 },
 {
  "city" : "Coimbatore",
  "latitude" : 11.016845,
  "longitude" : 76.955832,
  "attacks" : 16
 },
 {
  "city" : "Cookstown",
  "latitude" : 54.645861,
  "longitude" : -6.745149,
  "attacks" : 16
 },
 {
  "city" : "Esperanza",
  "latitude" : -9.772185,
  "longitude" : -70.707926,
  "attacks" : 16
 },
 {
  "city" : "gurdaspur district",
  "latitude" : 32.040763,
  "longitude" : 75.401886,
  "attacks" : 16
 },
 {
  "city" : "Hakkari",
  "latitude" : 37.576432,
  "longitude" : 43.737376,
  "attacks" : 16
 },
 {
  "city" : "Huacho",
  "latitude" : -11.122722,
  "longitude" : -77.610568,
  "attacks" : 16
 },
 {
  "city" : "Ibague",
  "latitude" : 4.43891,
  "longitude" : -75.23223,
  "attacks" : 16
 },
 {
  "city" : "Imam Sahib district",
  "latitude" : 37.187111,
  "longitude" : 68.899246,
  "attacks" : 16
 },
 {
  "city" : "Jajua district",
  "latitude" : -11.775601,
  "longitude" : -75.500675,
  "attacks" : 16
 },
 {
  "city" : "Jurf al-Sakhar district",
  "latitude" : 32.902177,
  "longitude" : 44.152694,
  "attacks" : 16
 },
 {
  "city" : "Kajaki district",
  "latitude" : 32.270119,
  "longitude" : 65.049683,
  "attacks" : 16
 },
 {
  "city" : "Kanaan",
  "latitude" : 33.67263,
  "longitude" : 44.85395,
  "attacks" : 16
 },
 {
  "city" : "Kfar Darom",
  "latitude" : 31.403616,
  "longitude" : 34.35907,
  "attacks" : 16
 },
 {
  "city" : "Khogyani",
  "latitude" : 34.199788,
  "longitude" : 70.168038,
  "attacks" : 16
 },
 {
  "city" : "Kukawa district",
  "latitude" : 12.922965,
  "longitude" : 13.563938,
  "attacks" : 16
 },
 {
  "city" : "Kutum",
  "latitude" : 14.202379,
  "longitude" : 24.664336,
  "attacks" : 16
 },
 {
  "city" : "Lafoole",
  "latitude" : 2.08333,
  "longitude" : 45.16667,
  "attacks" : 16
 },
 {
  "city" : "Mandalay",
  "latitude" : 21.973508,
  "longitude" : 96.08208,
  "attacks" : 16
 },
 {
  "city" : "Maruf district",
  "latitude" : 31.585831,
  "longitude" : 67.028191,
  "attacks" : 16
 },
 {
  "city" : "Moengo",
  "latitude" : 5.616667,
  "longitude" : -54.4,
  "attacks" : 16
 },
 {
  "city" : "Mostar",
  "latitude" : 43.340413,
  "longitude" : 17.80837,
  "attacks" : 16
 },
 {
  "city" : "Nad Ali",
  "latitude" : 31.64,
  "longitude" : 64.24,
  "attacks" : 16
 },
 {
  "city" : "Opytne",
  "latitude" : 48.557164,
  "longitude" : 38.016525,
  "attacks" : 16
 },
 {
  "city" : "Pahalgam",
  "latitude" : 34.016075,
  "longitude" : 75.31498,
  "attacks" : 16
 },
 {
  "city" : "Port au Prince",
  "latitude" : 18.5391667,
  "longitude" : -72.335,
  "attacks" : 16
 },
 {
  "city" : "Qarabagh",
  "latitude" : 33.193665,
  "longitude" : 68.102002,
  "attacks" : 16
 },
 {
  "city" : "Rajbiraj",
  "latitude" : 26.540301,
  "longitude" : 86.748377,
  "attacks" : 16
 },
 {
  "city" : "Rio Negro",
  "latitude" : 6.153669,
  "longitude" : -75.37416,
  "attacks" : 16
 },
 {
  "city" : "Sabari",
  "latitude" : 33.566561,
  "longitude" : 69.878354,
  "attacks" : 16
 },
 {
  "city" : "Sai Buri",
  "latitude" : 6.717959,
  "longitude" : 101.593027,
  "attacks" : 16
 },
 {
  "city" : "San Antonio",
  "latitude" : -33.583745,
  "longitude" : -71.613065,
  "attacks" : 16
 },
 {
  "city" : "san luis",
  "latitude" : 6.04278,
  "longitude" : -74.99493,
  "attacks" : 16
 },
 {
  "city" : "San Ramon",
  "latitude" : 13.682638,
  "longitude" : -88.926466,
  "attacks" : 16
 },
 {
  "city" : "Segovia",
  "latitude" : 7.08071,
  "longitude" : -74.70101,
  "attacks" : 16
 },
 {
  "city" : "Shirin Tagab district",
  "latitude" : 36.23828,
  "longitude" : 64.864446,
  "attacks" : 16
 },
 {
  "city" : "Silopi",
  "latitude" : 37.246602,
  "longitude" : 42.479458,
  "attacks" : 16
 },
 {
  "city" : "Sur district",
  "latitude" : 38.053899,
  "longitude" : 40.375494,
  "attacks" : 16
 },
 {
  "city" : "Tarn Taran",
  "latitude" : 31.448943,
  "longitude" : 74.925262,
  "attacks" : 16
 },
 {
  "city" : "Teorama",
  "latitude" : 8.43557,
  "longitude" : -73.28742,
  "attacks" : 16
 },
 {
  "city" : "Thoubal",
  "latitude" : 24.644924,
  "longitude" : 93.99929,
  "attacks" : 16
 },
 {
  "city" : "Tiaret",
  "latitude" : 35.37849,
  "longitude" : 1.32569,
  "attacks" : 16
 },
 {
  "city" : "Tirana",
  "latitude" : 41.3275,
  "longitude" : 19.8188889,
  "attacks" : 16
 },
 {
  "city" : "Tral",
  "latitude" : 33.932201,
  "longitude" : 75.113944,
  "attacks" : 16
 },
 {
  "city" : "Ukhrul",
  "latitude" : 25.095386,
  "longitude" : 94.361652,
  "attacks" : 16
 },
 {
  "city" : "Warsaw",
  "latitude" : 52.229676,
  "longitude" : 21.012229,
  "attacks" : 16
 },
 {
  "city" : "Yaha district",
  "latitude" : 6.477408,
  "longitude" : 101.135293,
  "attacks" : 16
 },
 {
  "city" : "Zemmouri",
  "latitude" : 36.803501,
  "longitude" : 3.563821,
  "attacks" : 16
 },
 {
  "city" : "Afmadow",
  "latitude" : 0.515556,
  "longitude" : 42.073334,
  "attacks" : 15
 },
 {
  "city" : "Aka Khel district",
  "latitude" : 33.917778,
  "longitude" : 71.464444,
  "attacks" : 15
 },
 {
  "city" : "Alicante",
  "latitude" : 38.34521,
  "longitude" : -0.480995,
  "attacks" : 15
 },
 {
  "city" : "Ambon",
  "latitude" : -3.648426,
  "longitude" : 128.16576,
  "attacks" : 15
 },
 {
  "city" : "Arghandab district",
  "latitude" : 31.65,
  "longitude" : 65.65,
  "attacks" : 15
 },
 {
  "city" : "Arghistan district",
  "latitude" : 31.46123,
  "longitude" : 66.52239,
  "attacks" : 15
 },
 {
  "city" : "Awantipora",
  "latitude" : 33.921168,
  "longitude" : 75.014605,
  "attacks" : 15
 },
 {
  "city" : "Bacho district",
  "latitude" : 6.517949,
  "longitude" : 101.653463,
  "attacks" : 15
 },
 {
  "city" : "Bandipora",
  "latitude" : 34.419539,
  "longitude" : 74.63827,
  "attacks" : 15
 },
 {
  "city" : "Bayonne",
  "latitude" : 43.492949,
  "longitude" : -1.474841,
  "attacks" : 15
 },
 {
  "city" : "Bihsud district",
  "latitude" : 34.45,
  "longitude" : 70.5,
  "attacks" : 15
 },
 {
  "city" : "Bolzano",
  "latitude" : 46.496714,
  "longitude" : 11.358008,
  "attacks" : 15
 },
 {
  "city" : "Bordj Menaiel",
  "latitude" : 36.742386,
  "longitude" : 3.722816,
  "attacks" : 15
 },
 {
  "city" : "Calvi",
  "latitude" : 42.567651,
  "longitude" : 8.757222,
  "attacks" : 15
 },
 {
  "city" : "Chiang Mai",
  "latitude" : 18.790977,
  "longitude" : 98.960776,
  "attacks" : 15
 },
 {
  "city" : "Cochabamba",
  "latitude" : -17.382789,
  "longitude" : -66.166439,
  "attacks" : 15
 },
 {
  "city" : "Dashti Archi district",
  "latitude" : 36.972222,
  "longitude" : 69.163056,
  "attacks" : 15
 },
 {
  "city" : "Dungannon",
  "latitude" : 54.502852,
  "longitude" : -6.769568,
  "attacks" : 15
 },
 {
  "city" : "el bagre",
  "latitude" : 7.594178,
  "longitude" : -74.811951,
  "attacks" : 15
 },
 {
  "city" : "Embalse Cerron Grande",
  "latitude" : 13.938518,
  "longitude" : -88.901366,
  "attacks" : 15
 },
 {
  "city" : "Gizab district",
  "latitude" : 33.429772,
  "longitude" : 66.213144,
  "attacks" : 15
 },
 {
  "city" : "Gudermes",
  "latitude" : 43.35,
  "longitude" : 46.1,
  "attacks" : 15
 },
 {
  "city" : "Hangu district",
  "latitude" : 33.533624,
  "longitude" : 71.054676,
  "attacks" : 15
 },
 {
  "city" : "huanuco",
  "latitude" : -9.929478,
  "longitude" : -76.239738,
  "attacks" : 15
 },
 {
  "city" : "Ibb",
  "latitude" : 13.965421,
  "longitude" : 44.163712,
  "attacks" : 15
 },
 {
  "city" : "Ilobasco",
  "latitude" : 13.85,
  "longitude" : -88.85,
  "attacks" : 15
 },
 {
  "city" : "Ismailia",
  "latitude" : 30.604231,
  "longitude" : 32.267849,
  "attacks" : 15
 },
 {
  "city" : "Janajpur",
  "latitude" : 26.73267,
  "longitude" : 85.924789,
  "attacks" : 15
 },
 {
  "city" : "Janale",
  "latitude" : 1.807766,
  "longitude" : 44.694179,
  "attacks" : 15
 },
 {
  "city" : "Jijel",
  "latitude" : 36.821899,
  "longitude" : 5.766102,
  "attacks" : 15
 },
 {
  "city" : "Kabkabiya",
  "latitude" : 13.64746,
  "longitude" : 24.086729,
  "attacks" : 15
 },
 {
  "city" : "Kalawanchikudi",
  "latitude" : 7.529372,
  "longitude" : 81.794609,
  "attacks" : 15
 },
 {
  "city" : "Kamdesh district",
  "latitude" : 35.409873,
  "longitude" : 71.338644,
  "attacks" : 15
 },
 {
  "city" : "Khwaja Sabz Posh district",
  "latitude" : 36.098459,
  "longitude" : 64.864461,
  "attacks" : 15
 },
 {
  "city" : "Kissufim",
  "latitude" : 31.375145,
  "longitude" : 34.399074,
  "attacks" : 15
 },
 {
  "city" : "Kohlu district",
  "latitude" : 29.673863,
  "longitude" : 68.715498,
  "attacks" : 15
 },
 {
  "city" : "Kufa",
  "latitude" : 32.032916,
  "longitude" : 44.399648,
  "attacks" : 15
 },
 {
  "city" : "La Libertad",
  "latitude" : 16.783116,
  "longitude" : -90.116653,
  "attacks" : 15
 },
 {
  "city" : "La Union",
  "latitude" : 13.3369444,
  "longitude" : -87.843889,
  "attacks" : 15
 },
 {
  "city" : "Laghouat",
  "latitude" : 33.8,
  "longitude" : 2.883333,
  "attacks" : 15
 },
 {
  "city" : "Matta district",
  "latitude" : 35.01646,
  "longitude" : 72.361809,
  "attacks" : 15
 },
 {
  "city" : "Mayo",
  "latitude" : 6.876096,
  "longitude" : 101.259053,
  "attacks" : 15
 },
 {
  "city" : "Miraflores",
  "latitude" : 12.19,
  "longitude" : -86.331389,
  "attacks" : 15
 },
 {
  "city" : "Mohammad Agha district",
  "latitude" : 34.264029,
  "longitude" : 69.161093,
  "attacks" : 15
 },
 {
  "city" : "Mount Lebanon",
  "latitude" : 33.789033,
  "longitude" : 35.480735,
  "attacks" : 15
 },
 {
  "city" : "Muqdadiyah district",
  "latitude" : 33.971349,
  "longitude" : 44.926682,
  "attacks" : 15
 },
 {
  "city" : "Nawabshah",
  "latitude" : 26.243386,
  "longitude" : 68.409092,
  "attacks" : 15
 },
 {
  "city" : "Nawagai",
  "latitude" : 34.404289,
  "longitude" : 72.55791,
  "attacks" : 15
 },
 {
  "city" : "Ocana",
  "latitude" : 8.23342,
  "longitude" : -73.35331,
  "attacks" : 15
 },
 {
  "city" : "Pagadian",
  "latitude" : 7.826201,
  "longitude" : 123.436552,
  "attacks" : 15
 },
 {
  "city" : "Pontevedra",
  "latitude" : 42.433619,
  "longitude" : -8.648053,
  "attacks" : 15
 },
 {
  "city" : "Rosario",
  "latitude" : -32.951052,
  "longitude" : -60.666365,
  "attacks" : 15
 },
 {
  "city" : "Salarzai",
  "latitude" : 34.865214,
  "longitude" : 71.526639,
  "attacks" : 15
 },
 {
  "city" : "San Jose Guayabal",
  "latitude" : 13.84222,
  "longitude" : -89.09694,
  "attacks" : 15
 },
 {
  "city" : "San Sebastian",
  "latitude" : 1.838988,
  "longitude" : -76.768788,
  "attacks" : 15
 },
 {
  "city" : "Sevilla",
  "latitude" : 4.26889,
  "longitude" : -75.9361,
  "attacks" : 15
 },
 {
  "city" : "Shali",
  "latitude" : 43.15,
  "longitude" : 45.9,
  "attacks" : 15
 },
 {
  "city" : "Sirwah district",
  "latitude" : 15.450333,
  "longitude" : 45.019821,
  "attacks" : 15
 },
 {
  "city" : "Sufiyah",
  "latitude" : 33.440376,
  "longitude" : 43.328276,
  "attacks" : 15
 },
 {
  "city" : "Tacurong",
  "latitude" : 6.702776,
  "longitude" : 124.683416,
  "attacks" : 15
 },
 {
  "city" : "Tejutla",
  "latitude" : 14.169631,
  "longitude" : -89.102686,
  "attacks" : 15
 },
 {
  "city" : "Torkham",
  "latitude" : 34.119766,
  "longitude" : 71.104745,
  "attacks" : 15
 },
 {
  "city" : "Trekhizbenka",
  "latitude" : 48.757015,
  "longitude" : 38.961959,
  "attacks" : 15
 },
 {
  "city" : "Tyrnyauz",
  "latitude" : 43.4,
  "longitude" : 42.916667,
  "attacks" : 15
 },
 {
  "city" : "Ukhrul district",
  "latitude" : 25.095386,
  "longitude" : 94.361652,
  "attacks" : 15
 },
 {
  "city" : "West Berlin",
  "latitude" : 52.505803,
  "longitude" : 13.331741,
  "attacks" : 15
 },
 {
  "city" : "Wihdah",
  "latitude" : 36.33852,
  "longitude" : 43.069674,
  "attacks" : 15
 },
 {
  "city" : "Zacatecoluca",
  "latitude" : 13.5,
  "longitude" : -88.866667,
  "attacks" : 15
 },
 {
  "city" : "Zagazig",
  "latitude" : 30.576563,
  "longitude" : 31.504058,
  "attacks" : 15
 },
 {
  "city" : "Zahri district",
  "latitude" : 31.640278,
  "longitude" : 65.3975,
  "attacks" : 15
 },
 {
  "city" : "Ziguinchor",
  "latitude" : 12.583333,
  "longitude" : -16.266667,
  "attacks" : 15
 },
 {
  "city" : "Zolote",
  "latitude" : 48.692808,
  "longitude" : 38.519801,
  "attacks" : 15
 },
 {
  "city" : "Adraskan district",
  "latitude" : 33.6435,
  "longitude" : 62.270635,
  "attacks" : 14
 },
 {
  "city" : "Aguachica",
  "latitude" : 8.30909,
  "longitude" : -73.617371,
  "attacks" : 14
 },
 {
  "city" : "Amriyat al-Fallujah",
  "latitude" : 33.165298,
  "longitude" : 43.865418,
  "attacks" : 14
 },
 {
  "city" : "Antananarivo",
  "latitude" : -18.92232,
  "longitude" : 47.51724,
  "attacks" : 14
 },
 {
  "city" : "Arauquita district",
  "latitude" : 7.027345,
  "longitude" : -71.428555,
  "attacks" : 14
 },
 {
  "city" : "Argun",
  "latitude" : 43.3,
  "longitude" : 45.866667,
  "attacks" : 14
 },
 {
  "city" : "Baramulla district",
  "latitude" : 34.205141,
  "longitude" : 74.349494,
  "attacks" : 14
 },
 {
  "city" : "Bauchi",
  "latitude" : 10.315833,
  "longitude" : 9.844167,
  "attacks" : 14
 },
 {
  "city" : "Beijing",
  "latitude" : 39.905556,
  "longitude" : 116.395833,
  "attacks" : 14
 },
 {
  "city" : "Bentiu",
  "latitude" : 9.26028,
  "longitude" : 29.800167,
  "attacks" : 14
 },
 {
  "city" : "Biu",
  "latitude" : 10.6111,
  "longitude" : 12.195,
  "attacks" : 14
 },
 {
  "city" : "Bonn",
  "latitude" : 50.732674,
  "longitude" : 7.096299,
  "attacks" : 14
 },
 {
  "city" : "Butuan",
  "latitude" : 8.948247,
  "longitude" : 125.541107,
  "attacks" : 14
 },
 {
  "city" : "Caloto",
  "latitude" : 3.035795,
  "longitude" : -76.408327,
  "attacks" : 14
 },
 {
  "city" : "Chernukhino",
  "latitude" : 48.331199,
  "longitude" : 38.500932,
  "attacks" : 14
 },
 {
  "city" : "Chinameca",
  "latitude" : 13.5,
  "longitude" : -88.35,
  "attacks" : 14
 },
 {
  "city" : "Churachandpur",
  "latitude" : 24.35,
  "longitude" : 93.7,
  "attacks" : 14
 },
 {
  "city" : "Dayrut",
  "latitude" : 27.555295,
  "longitude" : 30.8075,
  "attacks" : 14
 },
 {
  "city" : "Dhusamareb",
  "latitude" : 5.536389,
  "longitude" : 46.385624,
  "attacks" : 14
 },
 {
  "city" : "Doaba",
  "latitude" : 33.42303,
  "longitude" : 70.735813,
  "attacks" : 14
 },
 {
  "city" : "Doda",
  "latitude" : 33.14575,
  "longitude" : 75.548049,
  "attacks" : 14
 },
 {
  "city" : "El Alto",
  "latitude" : -16.501004,
  "longitude" : -68.213926,
  "attacks" : 14
 },
 {
  "city" : "El Tarra",
  "latitude" : 8.57451,
  "longitude" : -73.09339,
  "attacks" : 14
 },
 {
  "city" : "Habbaniyah",
  "latitude" : 33.38223,
  "longitude" : 43.572669,
  "attacks" : 14
 },
 {
  "city" : "Hawr Rajab",
  "latitude" : 33.192554,
  "longitude" : 44.410383,
  "attacks" : 14
 },
 {
  "city" : "Imam Sahib",
  "latitude" : 37.181789,
  "longitude" : 68.913158,
  "attacks" : 14
 },
 {
  "city" : "Jaarah",
  "latitude" : 31.884621,
  "longitude" : 44.48912,
  "attacks" : 14
 },
 {
  "city" : "Jericho",
  "latitude" : 31.857028,
  "longitude" : 35.460596,
  "attacks" : 14
 },
 {
  "city" : "jhang",
  "latitude" : 31.276847,
  "longitude" : 72.32133,
  "attacks" : 14
 },
 {
  "city" : "Jhargam",
  "latitude" : 22.45109,
  "longitude" : 86.995289,
  "attacks" : 14
 },
 {
  "city" : "Khwaja Ghar district",
  "latitude" : 37.069618,
  "longitude" : 69.420952,
  "attacks" : 14
 },
 {
  "city" : "Kingston",
  "latitude" : 18,
  "longitude" : -76.8,
  "attacks" : 14
 },
 {
  "city" : "Kizlyar",
  "latitude" : 43.85,
  "longitude" : 46.716667,
  "attacks" : 14
 },
 {
  "city" : "Kokrajhar",
  "latitude" : 26.401436,
  "longitude" : 90.266699,
  "attacks" : 14
 },
 {
  "city" : "Koronadal",
  "latitude" : 6.499128,
  "longitude" : 124.844338,
  "attacks" : 14
 },
 {
  "city" : "Liboi",
  "latitude" : 0.355363,
  "longitude" : 40.872223,
  "attacks" : 14
 },
 {
  "city" : "Makati",
  "latitude" : 14.555116,
  "longitude" : 121.024346,
  "attacks" : 14
 },
 {
  "city" : "Mayo district",
  "latitude" : 6.718284,
  "longitude" : 101.410096,
  "attacks" : 14
 },
 {
  "city" : "Morawewa",
  "latitude" : 8.589444,
  "longitude" : 80.835,
  "attacks" : 14
 },
 {
  "city" : "Muqur",
  "latitude" : 35.088164,
  "longitude" : 63.09357,
  "attacks" : 14
 },
 {
  "city" : "Narayanpur",
  "latitude" : 19.760181,
  "longitude" : 78.705045,
  "attacks" : 14
 },
 {
  "city" : "Panjwai",
  "latitude" : 31.550039,
  "longitude" : 65.45263,
  "attacks" : 14
 },
 {
  "city" : "Point Pedro",
  "latitude" : 9.82486,
  "longitude" : 80.236347,
  "attacks" : 14
 },
 {
  "city" : "Poonch",
  "latitude" : 33.767001,
  "longitude" : 74.092404,
  "attacks" : 14
 },
 {
  "city" : "Prague",
  "latitude" : 50.087811,
  "longitude" : 14.42046,
  "attacks" : 14
 },
 {
  "city" : "Puerto Colon",
  "latitude" : 0.280373,
  "longitude" : -76.926854,
  "attacks" : 14
 },
 {
  "city" : "Puno",
  "latitude" : -15.84065,
  "longitude" : -70.027891,
  "attacks" : 14
 },
 {
  "city" : "Ramadi district",
  "latitude" : 33.431899,
  "longitude" : 43.311566,
  "attacks" : 14
 },
 {
  "city" : "Ranchi",
  "latitude" : 23.369968,
  "longitude" : 85.325012,
  "attacks" : 14
 },
 {
  "city" : "Rangae (district)",
  "latitude" : 6.254153,
  "longitude" : 101.729605,
  "attacks" : 14
 },
 {
  "city" : "Rangamati district",
  "latitude" : 22.65735,
  "longitude" : 92.173271,
  "attacks" : 14
 },
 {
  "city" : "Raqqah",
  "latitude" : 35.947449,
  "longitude" : 39.036781,
  "attacks" : 14
 },
 {
  "city" : "San Agustin",
  "latitude" : 13.43204,
  "longitude" : -88.592239,
  "attacks" : 14
 },
 {
  "city" : "San Marcos",
  "latitude" : 14.965261,
  "longitude" : -91.795813,
  "attacks" : 14
 },
 {
  "city" : "Sangrur",
  "latitude" : 30.245796,
  "longitude" : 75.842072,
  "attacks" : 14
 },
 {
  "city" : "Santander",
  "latitude" : 43.46096,
  "longitude" : -3.807934,
  "attacks" : 14
 },
 {
  "city" : "Saravena district",
  "latitude" : 6.95284,
  "longitude" : -71.87514,
  "attacks" : 14
 },
 {
  "city" : "Sharan",
  "latitude" : 33.177132,
  "longitude" : 68.781077,
  "attacks" : 14
 },
 {
  "city" : "Shibam",
  "latitude" : 15.922833,
  "longitude" : 48.637487,
  "attacks" : 14
 },
 {
  "city" : "Soyapango",
  "latitude" : 13.701964,
  "longitude" : -89.147774,
  "attacks" : 14
 },
 {
  "city" : "Suwayrah",
  "latitude" : 32.925266,
  "longitude" : 44.770956,
  "attacks" : 14
 },
 {
  "city" : "Sydney",
  "latitude" : -33.873651,
  "longitude" : 151.20689,
  "attacks" : 14
 },
 {
  "city" : "Talca",
  "latitude" : -35.43058,
  "longitude" : -71.65762,
  "attacks" : 14
 },
 {
  "city" : "Tashkent",
  "latitude" : 41.266667,
  "longitude" : 69.216667,
  "attacks" : 14
 },
 {
  "city" : "Than To",
  "latitude" : 6.354221,
  "longitude" : 101.234542,
  "attacks" : 14
 },
 {
  "city" : "Tipaza",
  "latitude" : 36.587152,
  "longitude" : 2.44311,
  "attacks" : 14
 },
 {
  "city" : "Tskhinvali",
  "latitude" : 42.224159,
  "longitude" : 43.9632,
  "attacks" : 14
 },
 {
  "city" : "Tunis",
  "latitude" : 36.8027778,
  "longitude" : 10.1797222,
  "attacks" : 14
 },
 {
  "city" : "Yangon",
  "latitude" : 16.799582,
  "longitude" : 96.150907,
  "attacks" : 14
 },
 {
  "city" : "Yenagoa",
  "latitude" : 4.921162,
  "longitude" : 6.274773,
  "attacks" : 14
 },
 {
  "city" : "Yerevan",
  "latitude" : 40.183333,
  "longitude" : 44.516667,
  "attacks" : 14
 },
 {
  "city" : "Zawiya",
  "latitude" : 32.752222,
  "longitude" : 12.727778,
  "attacks" : 14
 },
 {
  "city" : "Akaraipattu",
  "latitude" : 7.219392,
  "longitude" : 81.849757,
  "attacks" : 13
 },
 {
  "city" : "Anantnag district",
  "latitude" : 33.733336,
  "longitude" : 75.148983,
  "attacks" : 13
 },
 {
  "city" : "Aomar",
  "latitude" : 36.501,
  "longitude" : 3.77396,
  "attacks" : 13
 },
 {
  "city" : "Bamako",
  "latitude" : 12.644684,
  "longitude" : -8.003768,
  "attacks" : 13
 },
 {
  "city" : "Barakaldo",
  "latitude" : 43.297222,
  "longitude" : -2.991667,
  "attacks" : 13
 },
 {
  "city" : "Barkhan",
  "latitude" : 29.897578,
  "longitude" : 69.524224,
  "attacks" : 13
 },
 {
  "city" : "Beni suef",
  "latitude" : 29.074371,
  "longitude" : 31.098497,
  "attacks" : 13
 },
 {
  "city" : "Burhakaba",
  "latitude" : 2.800444,
  "longitude" : 44.083359,
  "attacks" : 13
 },
 {
  "city" : "Cagayan de Oro",
  "latitude" : 8.482536,
  "longitude" : 124.647404,
  "attacks" : 13
 },